[
  {
    "id": 1,
    "city": "Goroka",
    "country": "Papua New Guinea",
    "lat": -6.082,
    "long": 145.392
  },
  {
    "id": 2,
    "city": "Madang",
    "country": "Papua New Guinea",
    "lat": -5.207,
    "long": 145.789
  },
  {
    "id": 3,
    "city": "Mount Hagen",
    "country": "Papua New Guinea",
    "lat": -5.826,
    "long": 144.296
  },
  {
    "id": 4,
    "city": "Nadzab",
    "country": "Papua New Guinea",
    "lat": -6.57,
    "long": 146.726
  },
  {
    "id": 5,
    "city": "Port Moresby",
    "country": "Papua New Guinea",
    "lat": -9.443,
    "long": 147.22
  },
  {
    "id": 6,
    "city": "Wewak",
    "country": "Papua New Guinea",
    "lat": -3.584,
    "long": 143.669
  },
  {
    "id": 7,
    "city": "Narssarssuaq",
    "country": "Greenland",
    "lat": 61.161,
    "long": -45.427
  },
  {
    "id": 8,
    "city": "Nerlerit Inaat",
    "country": "Greenland",
    "lat": 70.739,
    "long": -22.646
  },
  {
    "id": 9,
    "city": "Godthaab",
    "country": "Greenland",
    "lat": 64.191,
    "long": -51.678
  },
  {
    "id": 10,
    "city": "Jakobshavn",
    "country": "Greenland",
    "lat": 69.233,
    "long": -51.067
  },
  {
    "id": 11,
    "city": "Kulusuk",
    "country": "Greenland",
    "lat": 65.583,
    "long": -37.15
  },
  {
    "id": 12,
    "city": "Sondrestrom",
    "country": "Greenland",
    "lat": 67.017,
    "long": -50.689
  },
  {
    "id": 13,
    "city": "Thule",
    "country": "Greenland",
    "lat": 76.531,
    "long": -68.703
  },
  {
    "id": 14,
    "city": "Akureyri",
    "country": "Iceland",
    "lat": 65.66,
    "long": -18.072
  },
  {
    "id": 15,
    "city": "Egilsstadir",
    "country": "Iceland",
    "lat": 65.283,
    "long": -14.401
  },
  {
    "id": 16,
    "city": "Hofn",
    "country": "Iceland",
    "lat": 64.296,
    "long": -15.227
  },
  {
    "id": 17,
    "city": "Husavik",
    "country": "Iceland",
    "lat": 65.952,
    "long": -17.426
  },
  {
    "id": 18,
    "city": "Isafjordur",
    "country": "Iceland",
    "lat": 66.058,
    "long": -23.135
  },
  {
    "id": 19,
    "city": "Keflavik",
    "country": "Iceland",
    "lat": 63.985,
    "long": -22.606
  },
  {
    "id": 20,
    "city": "Kopasker",
    "country": "Iceland",
    "lat": 66.314,
    "long": -16.461
  },
  {
    "id": 21,
    "city": "Patreksfjordur",
    "country": "Iceland",
    "lat": 65.556,
    "long": -23.965
  },
  {
    "id": 22,
    "city": "Reykjavik",
    "country": "Iceland",
    "lat": 64.13,
    "long": -21.941
  },
  {
    "id": 23,
    "city": "Siglufjordur",
    "country": "Iceland",
    "lat": 66.133,
    "long": -18.917
  },
  {
    "id": 24,
    "city": "Vestmannaeyjar",
    "country": "Iceland",
    "lat": 63.424,
    "long": -20.279
  },
  {
    "id": 25,
    "city": "Sault Sainte Marie",
    "country": "Canada",
    "lat": 46.485,
    "long": -84.509
  },
  {
    "id": 26,
    "city": "Winnipeg",
    "country": "Canada",
    "lat": 50.056,
    "long": -97.032
  },
  {
    "id": 27,
    "city": "Halifax",
    "country": "Canada",
    "lat": 44.64,
    "long": -63.499
  },
  {
    "id": 28,
    "city": "St. Anthony",
    "country": "Canada",
    "lat": 51.392,
    "long": -56.084
  },
  {
    "id": 29,
    "city": "Tofino",
    "country": "Canada",
    "lat": 49.082,
    "long": -125.772
  },
  {
    "id": 30,
    "city": "Pelly Bay",
    "country": "Canada",
    "lat": 68.534,
    "long": -89.808
  },
  {
    "id": 31,
    "city": "Baie Comeau",
    "country": "Canada",
    "lat": 49.132,
    "long": -68.207
  },
  {
    "id": 32,
    "city": "Bagotville",
    "country": "Canada",
    "lat": 48.331,
    "long": -70.996
  },
  {
    "id": 33,
    "city": "Baker Lake",
    "country": "Canada",
    "lat": 64.299,
    "long": -96.078
  },
  {
    "id": 34,
    "city": "Campbell River",
    "country": "Canada",
    "lat": 49.951,
    "long": -125.271
  },
  {
    "id": 35,
    "city": "Brandon",
    "country": "Canada",
    "lat": 49.91,
    "long": -99.952
  },
  {
    "id": 36,
    "city": "Cambridge Bay",
    "country": "Canada",
    "lat": 69.108,
    "long": -105.138
  },
  {
    "id": 37,
    "city": "Nanaimo",
    "country": "Canada",
    "lat": 49.052,
    "long": -123.87
  },
  {
    "id": 38,
    "city": "Castlegar",
    "country": "Canada",
    "lat": 49.296,
    "long": -117.632
  },
  {
    "id": 39,
    "city": "Chatham",
    "country": "Canada",
    "lat": 47.008,
    "long": -65.449
  },
  {
    "id": 40,
    "city": "Charlo",
    "country": "Canada",
    "lat": 47.991,
    "long": -66.331
  },
  {
    "id": 41,
    "city": "Coppermine",
    "country": "Canada",
    "lat": 67.817,
    "long": -115.144
  },
  {
    "id": 42,
    "city": "Coronation",
    "country": "Canada",
    "lat": 52.075,
    "long": -111.445
  },
  {
    "id": 43,
    "city": "Chilliwack",
    "country": "Canada",
    "lat": 49.153,
    "long": -121.939
  },
  {
    "id": 44,
    "city": "Clyde River",
    "country": "Canada",
    "lat": 70.486,
    "long": -68.517
  },
  {
    "id": 45,
    "city": "Coral Harbour",
    "country": "Canada",
    "lat": 50.332,
    "long": -115.874
  },
  {
    "id": 46,
    "city": "Dawson",
    "country": "Canada",
    "lat": 64.043,
    "long": -139.128
  },
  {
    "id": 47,
    "city": "Burwash",
    "country": "Canada",
    "lat": 61.371,
    "long": -139.041
  },
  {
    "id": 48,
    "city": "Princeton",
    "country": "Canada",
    "lat": 49.468,
    "long": -120.512
  },
  {
    "id": 49,
    "city": "Deer Lake",
    "country": "Canada",
    "lat": 49.211,
    "long": -57.391
  },
  {
    "id": 50,
    "city": "Dease Lake",
    "country": "Canada",
    "lat": 58.422,
    "long": -130.032
  },
  {
    "id": 51,
    "city": "Dauphin",
    "country": "Canada",
    "lat": 51.101,
    "long": -100.052
  },
  {
    "id": 52,
    "city": "Dawson Creek",
    "country": "Canada",
    "lat": 55.742,
    "long": -120.182
  },
  {
    "id": 53,
    "city": "Edmonton",
    "country": "Canada",
    "lat": 53.667,
    "long": -113.467
  },
  {
    "id": 55,
    "city": "Eskimo Point",
    "country": "Canada",
    "lat": 61.094,
    "long": -94.071
  },
  {
    "id": 56,
    "city": "Estevan",
    "country": "Canada",
    "lat": 49.21,
    "long": -102.966
  },
  {
    "id": 57,
    "city": "Edson",
    "country": "Canada",
    "lat": 53.579,
    "long": -116.465
  },
  {
    "id": 58,
    "city": "Eureka",
    "country": "Canada",
    "lat": 79.995,
    "long": -85.813
  },
  {
    "id": 59,
    "city": "Inuvik",
    "country": "Canada",
    "lat": 68.304,
    "long": -133.483
  },
  {
    "id": 60,
    "city": "Iqaluit",
    "country": "Canada",
    "lat": 63.756,
    "long": -68.556
  },
  {
    "id": 61,
    "city": "Fredericton",
    "country": "Canada",
    "lat": 45.869,
    "long": -66.532
  },
  {
    "id": 62,
    "city": "Forestville",
    "country": "Canada",
    "lat": 48.746,
    "long": -69.097
  },
  {
    "id": 63,
    "city": "Flin Flon",
    "country": "Canada",
    "lat": 54.678,
    "long": -101.682
  },
  {
    "id": 64,
    "city": "Fort Resolution",
    "country": "Canada",
    "lat": 61.181,
    "long": -113.69
  },
  {
    "id": 65,
    "city": "Fort Simpson",
    "country": "Canada",
    "lat": 61.76,
    "long": -121.237
  },
  {
    "id": 66,
    "city": "Kingston",
    "country": "Canada",
    "lat": 44.225,
    "long": -76.597
  },
  {
    "id": 67,
    "city": "La Grande Riviere",
    "country": "Canada",
    "lat": 53.625,
    "long": -77.704
  },
  {
    "id": 68,
    "city": "Gaspe",
    "country": "Canada",
    "lat": 48.775,
    "long": -64.479
  },
  {
    "id": 69,
    "city": "Geraldton",
    "country": "Canada",
    "lat": 49.778,
    "long": -86.939
  },
  {
    "id": 70,
    "city": "Iles De La Madeleine",
    "country": "Canada",
    "lat": 47.425,
    "long": -61.778
  },
  {
    "id": 71,
    "city": "Kuujjuararapik",
    "country": "Canada",
    "lat": 55.283,
    "long": -77.767
  },
  {
    "id": 72,
    "city": "Gillam",
    "country": "Canada",
    "lat": 56.35,
    "long": -94.7
  },
  {
    "id": 73,
    "city": "Hudson Bay",
    "country": "Canada",
    "lat": 52.817,
    "long": -102.311
  },
  {
    "id": 74,
    "city": "Dryden",
    "country": "Canada",
    "lat": 49.832,
    "long": -92.744
  },
  {
    "id": 75,
    "city": "Holman Island",
    "country": "Canada",
    "lat": 70.763,
    "long": -117.806
  },
  {
    "id": 76,
    "city": "Gjoa Haven",
    "country": "Canada",
    "lat": 68.636,
    "long": -95.85
  },
  {
    "id": 77,
    "city": "Hamilton",
    "country": "Canada",
    "lat": 43.173,
    "long": -79.935
  },
  {
    "id": 78,
    "city": "Montreal",
    "country": "Canada",
    "lat": 45.517,
    "long": -73.417
  },
  {
    "id": 79,
    "city": "Hay River",
    "country": "Canada",
    "lat": 60.84,
    "long": -115.783
  },
  {
    "id": 81,
    "city": "Atikokan",
    "country": "Canada",
    "lat": 48.774,
    "long": -91.639
  },
  {
    "id": 82,
    "city": "Pond Inlet",
    "country": "Canada",
    "lat": 72.683,
    "long": -77.967
  },
  {
    "id": 83,
    "city": "St. Jean",
    "country": "Canada",
    "lat": 45.294,
    "long": -73.281
  },
  {
    "id": 84,
    "city": "Stephenville",
    "country": "Canada",
    "lat": 48.544,
    "long": -58.55
  },
  {
    "id": 85,
    "city": "Kamloops",
    "country": "Canada",
    "lat": 50.702,
    "long": -120.442
  },
  {
    "id": 86,
    "city": "Waterloo",
    "country": "Canada",
    "lat": 43.459,
    "long": -80.384
  },
  {
    "id": 87,
    "city": "Schefferville",
    "country": "Canada",
    "lat": 54.805,
    "long": -66.805
  },
  {
    "id": 88,
    "city": "Kindersley",
    "country": "Canada",
    "lat": 51.517,
    "long": -109.181
  },
  {
    "id": 89,
    "city": "Toronto",
    "country": "Canada",
    "lat": 43.862,
    "long": -79.37
  },
  {
    "id": 90,
    "city": "Chapleau",
    "country": "Canada",
    "lat": 47.82,
    "long": -83.346
  },
  {
    "id": 91,
    "city": "Meadow Lake",
    "country": "Canada",
    "lat": 54.125,
    "long": -108.523
  },
  {
    "id": 92,
    "city": "Lloydminster",
    "country": "Canada",
    "lat": 53.309,
    "long": -110.072
  },
  {
    "id": 93,
    "city": "Alert",
    "country": "Canada",
    "lat": 82.518,
    "long": -62.281
  },
  {
    "id": 94,
    "city": "Kelowna",
    "country": "Canada",
    "lat": 49.956,
    "long": -119.378
  },
  {
    "id": 95,
    "city": "Mayo",
    "country": "Canada",
    "lat": 63.617,
    "long": -135.867
  },
  {
    "id": 96,
    "city": "Moose Jaw",
    "country": "Canada",
    "lat": 50.33,
    "long": -105.559
  },
  {
    "id": 97,
    "city": "Fort Mcmurray",
    "country": "Canada",
    "lat": 56.653,
    "long": -111.222
  },
  {
    "id": 98,
    "city": "Moosonee",
    "country": "Canada",
    "lat": 51.291,
    "long": -80.608
  },
  {
    "id": 99,
    "city": "Maniwaki",
    "country": "Canada",
    "lat": 46.274,
    "long": -75.99
  },
  {
    "id": 101,
    "city": "Natashquan",
    "country": "Canada",
    "lat": 50.19,
    "long": -61.789
  },
  {
    "id": 102,
    "city": "Gatineau",
    "country": "Canada",
    "lat": 45.521,
    "long": -75.564
  },
  {
    "id": 103,
    "city": "Matagami",
    "country": "Canada",
    "lat": 49.762,
    "long": -77.803
  },
  {
    "id": 104,
    "city": "Old Crow",
    "country": "Canada",
    "lat": 67.571,
    "long": -139.839
  },
  {
    "id": 105,
    "city": "Cold Lake",
    "country": "Canada",
    "lat": 54.405,
    "long": -110.279
  },
  {
    "id": 106,
    "city": "High Level",
    "country": "Canada",
    "lat": 58.621,
    "long": -117.165
  },
  {
    "id": 107,
    "city": "Ottawa",
    "country": "Canada",
    "lat": 45.323,
    "long": -75.669
  },
  {
    "id": 108,
    "city": "Prince Albert",
    "country": "Canada",
    "lat": 53.214,
    "long": -105.673
  },
  {
    "id": 109,
    "city": "Peace River",
    "country": "Canada",
    "lat": 56.227,
    "long": -117.447
  },
  {
    "id": 110,
    "city": "Portage-la-prairie",
    "country": "Canada",
    "lat": 49.903,
    "long": -98.275
  },
  {
    "id": 111,
    "city": "Pitt Meadows",
    "country": "Canada",
    "lat": 49.216,
    "long": -122.71
  },
  {
    "id": 112,
    "city": "Pickle Lake",
    "country": "Canada",
    "lat": 51.446,
    "long": -90.214
  },
  {
    "id": 113,
    "city": "Port Menier",
    "country": "Canada",
    "lat": 49.836,
    "long": -64.289
  },
  {
    "id": 114,
    "city": "Peterborough",
    "country": "Canada",
    "lat": 44.23,
    "long": -78.363
  },
  {
    "id": 115,
    "city": "Prince Pupert",
    "country": "Canada",
    "lat": 54.286,
    "long": -130.445
  },
  {
    "id": 116,
    "city": "Fort Chipewyan",
    "country": "Canada",
    "lat": 58.767,
    "long": -111.117
  },
  {
    "id": 117,
    "city": "Muskoka",
    "country": "Canada",
    "lat": 44.975,
    "long": -79.303
  },
  {
    "id": 118,
    "city": "Quebec",
    "country": "Canada",
    "lat": 46.788,
    "long": -71.398
  },
  {
    "id": 119,
    "city": "Red Deer Industrial",
    "country": "Canada",
    "lat": 52.179,
    "long": -113.893
  },
  {
    "id": 120,
    "city": "Windsor",
    "country": "Canada",
    "lat": 42.276,
    "long": -82.956
  },
  {
    "id": 121,
    "city": "Watson Lake",
    "country": "Canada",
    "lat": 60.118,
    "long": -128.822
  },
  {
    "id": 122,
    "city": "Kenora",
    "country": "Canada",
    "lat": 49.788,
    "long": -94.363
  },
  {
    "id": 123,
    "city": "Lethbridge",
    "country": "Canada",
    "lat": 49.63,
    "long": -112.8
  },
  {
    "id": 124,
    "city": "Moncton",
    "country": "Canada",
    "lat": 46.112,
    "long": -64.679
  },
  {
    "id": 125,
    "city": "Nakina",
    "country": "Canada",
    "lat": 50.183,
    "long": -86.696
  },
  {
    "id": 126,
    "city": "Comox",
    "country": "Canada",
    "lat": 49.711,
    "long": -124.887
  },
  {
    "id": 127,
    "city": "Regina",
    "country": "Canada",
    "lat": 50.432,
    "long": -104.666
  },
  {
    "id": 128,
    "city": "Thunder Bay",
    "country": "Canada",
    "lat": 48.372,
    "long": -89.324
  },
  {
    "id": 129,
    "city": "Grande Prairie",
    "country": "Canada",
    "lat": 55.18,
    "long": -118.885
  },
  {
    "id": 130,
    "city": "Yorkton",
    "country": "Canada",
    "lat": 51.265,
    "long": -102.462
  },
  {
    "id": 131,
    "city": "North Battleford",
    "country": "Canada",
    "lat": 52.769,
    "long": -108.244
  },
  {
    "id": 132,
    "city": "Gander",
    "country": "Canada",
    "lat": 48.937,
    "long": -54.568
  },
  {
    "id": 133,
    "city": "Sydney",
    "country": "Canada",
    "lat": 46.161,
    "long": -60.048
  },
  {
    "id": 134,
    "city": "Quesnel",
    "country": "Canada",
    "lat": 53.026,
    "long": -122.51
  },
  {
    "id": 135,
    "city": "Resolute",
    "country": "Canada",
    "lat": 74.717,
    "long": -94.969
  },
  {
    "id": 136,
    "city": "Riviere Du Loup",
    "country": "Canada",
    "lat": 47.764,
    "long": -69.585
  },
  {
    "id": 137,
    "city": "Roberval",
    "country": "Canada",
    "lat": 48.52,
    "long": -72.266
  },
  {
    "id": 138,
    "city": "Rocky Mountain House",
    "country": "Canada",
    "lat": 52.43,
    "long": -114.904
  },
  {
    "id": 139,
    "city": "Rankin Inlet",
    "country": "Canada",
    "lat": 62.811,
    "long": -92.116
  },
  {
    "id": 140,
    "city": "Sudbury",
    "country": "Canada",
    "lat": 46.625,
    "long": -80.799
  },
  {
    "id": 141,
    "city": "Sherbrooke",
    "country": "Canada",
    "lat": 45.438,
    "long": -71.691
  },
  {
    "id": 142,
    "city": "St. John",
    "country": "Canada",
    "lat": 45.316,
    "long": -65.89
  },
  {
    "id": 143,
    "city": "Fort Smith",
    "country": "Canada",
    "lat": 60.022,
    "long": -111.96
  },
  {
    "id": 144,
    "city": "Nanisivik",
    "country": "Canada",
    "lat": 72.982,
    "long": -84.614
  },
  {
    "id": 145,
    "city": "Summerside",
    "country": "Canada",
    "lat": 46.443,
    "long": -63.831
  },
  {
    "id": 146,
    "city": "Sachs Harbour",
    "country": "Canada",
    "lat": 71.994,
    "long": -125.243
  },
  {
    "id": 147,
    "city": "Cape Dorset",
    "country": "Canada",
    "lat": 64.23,
    "long": -76.527
  },
  {
    "id": 148,
    "city": "Thompson",
    "country": "Canada",
    "lat": 55.801,
    "long": -97.864
  },
  {
    "id": 149,
    "city": "Trenton",
    "country": "Canada",
    "lat": 44.119,
    "long": -77.528
  },
  {
    "id": 150,
    "city": "Timmins",
    "country": "Canada",
    "lat": 48.57,
    "long": -81.377
  },
  {
    "id": 152,
    "city": "Tuktoyaktuk",
    "country": "Canada",
    "lat": 69.433,
    "long": -133.026
  },
  {
    "id": 154,
    "city": "Repulse Bay",
    "country": "Canada",
    "lat": 66.521,
    "long": -86.225
  },
  {
    "id": 155,
    "city": "Hall Beach",
    "country": "Canada",
    "lat": 68.776,
    "long": -81.244
  },
  {
    "id": 156,
    "city": "Rouyn",
    "country": "Canada",
    "lat": 48.206,
    "long": -78.836
  },
  {
    "id": 157,
    "city": "La Ronge",
    "country": "Canada",
    "lat": 55.151,
    "long": -105.262
  },
  {
    "id": 158,
    "city": "Vermillion",
    "country": "Canada",
    "lat": 53.356,
    "long": -110.824
  },
  {
    "id": 159,
    "city": "Broughton Island",
    "country": "Canada",
    "lat": 67.546,
    "long": -64.031
  },
  {
    "id": 160,
    "city": "Val D'or",
    "country": "Canada",
    "lat": 48.053,
    "long": -77.783
  },
  {
    "id": 161,
    "city": "Quujjuaq",
    "country": "Canada",
    "lat": 58.096,
    "long": -68.427
  },
  {
    "id": 162,
    "city": "Norman Wells",
    "country": "Canada",
    "lat": 65.282,
    "long": -126.8
  },
  {
    "id": 163,
    "city": "Vancouver",
    "country": "Canada",
    "lat": 49.195,
    "long": -123.182
  },
  {
    "id": 164,
    "city": "Buffalo Narrows",
    "country": "Canada",
    "lat": 55.842,
    "long": -108.418
  },
  {
    "id": 165,
    "city": "Wiarton",
    "country": "Canada",
    "lat": 44.746,
    "long": -81.107
  },
  {
    "id": 166,
    "city": "Petawawa",
    "country": "Canada",
    "lat": 45.952,
    "long": -77.319
  },
  {
    "id": 168,
    "city": "Wabush",
    "country": "Canada",
    "lat": 52.922,
    "long": -66.864
  },
  {
    "id": 169,
    "city": "Williams Lake",
    "country": "Canada",
    "lat": 52.183,
    "long": -122.054
  },
  {
    "id": 170,
    "city": "Wrigley",
    "country": "Canada",
    "lat": 63.209,
    "long": -123.437
  },
  {
    "id": 171,
    "city": "Cranbrook",
    "country": "Canada",
    "lat": 49.61,
    "long": -115.782
  },
  {
    "id": 173,
    "city": "Saskatoon",
    "country": "Canada",
    "lat": 52.171,
    "long": -106.7
  },
  {
    "id": 174,
    "city": "Medicine Hat",
    "country": "Canada",
    "lat": 50.019,
    "long": -110.721
  },
  {
    "id": 175,
    "city": "Fort Saint John",
    "country": "Canada",
    "lat": 56.238,
    "long": -120.74
  },
  {
    "id": 176,
    "city": "Sioux Lookout",
    "country": "Canada",
    "lat": 50.114,
    "long": -91.904
  },
  {
    "id": 177,
    "city": "Pangnirtung",
    "country": "Canada",
    "lat": 66.145,
    "long": -65.714
  },
  {
    "id": 178,
    "city": "Earlton",
    "country": "Canada",
    "lat": 47.695,
    "long": -79.849
  },
  {
    "id": 179,
    "city": "Prince George",
    "country": "Canada",
    "lat": 53.889,
    "long": -122.679
  },
  {
    "id": 180,
    "city": "Terrace",
    "country": "Canada",
    "lat": 54.466,
    "long": -128.577
  },
  {
    "id": 181,
    "city": "London",
    "country": "Canada",
    "lat": 43.036,
    "long": -81.154
  },
  {
    "id": 182,
    "city": "Abbotsford",
    "country": "Canada",
    "lat": 49.025,
    "long": -122.363
  },
  {
    "id": 183,
    "city": "Whitehorse",
    "country": "Canada",
    "lat": 60.709,
    "long": -135.068
  },
  {
    "id": 184,
    "city": "North Bay",
    "country": "Canada",
    "lat": 46.364,
    "long": -79.423
  },
  {
    "id": 185,
    "city": "Calgary",
    "country": "Canada",
    "lat": 51.114,
    "long": -114.02
  },
  {
    "id": 186,
    "city": "Smithers",
    "country": "Canada",
    "lat": 54.825,
    "long": -127.183
  },
  {
    "id": 187,
    "city": "Fort Nelson",
    "country": "Canada",
    "lat": 58.836,
    "long": -122.597
  },
  {
    "id": 188,
    "city": "Penticton",
    "country": "Canada",
    "lat": 49.463,
    "long": -119.602
  },
  {
    "id": 189,
    "city": "Charlottetown",
    "country": "Canada",
    "lat": 46.29,
    "long": -63.121
  },
  {
    "id": 190,
    "city": "Spence Bay",
    "country": "Canada",
    "lat": 69.547,
    "long": -93.577
  },
  {
    "id": 191,
    "city": "Victoria",
    "country": "Canada",
    "lat": 48.647,
    "long": -123.426
  },
  {
    "id": 192,
    "city": "Lynn Lake",
    "country": "Canada",
    "lat": 56.864,
    "long": -101.076
  },
  {
    "id": 193,
    "city": "Swift Current",
    "country": "Canada",
    "lat": 50.292,
    "long": -107.691
  },
  {
    "id": 194,
    "city": "Churchill",
    "country": "Canada",
    "lat": 58.739,
    "long": -94.065
  },
  {
    "id": 195,
    "city": "Goose Bay",
    "country": "Canada",
    "lat": 53.319,
    "long": -60.426
  },
  {
    "id": 196,
    "city": "St. John's",
    "country": "Canada",
    "lat": 47.619,
    "long": -52.752
  },
  {
    "id": 197,
    "city": "Kapuskasing",
    "country": "Canada",
    "lat": 49.414,
    "long": -82.468
  },
  {
    "id": 198,
    "city": "Armstrong",
    "country": "Canada",
    "lat": 50.29,
    "long": -88.91
  },
  {
    "id": 199,
    "city": "Mont Joli",
    "country": "Canada",
    "lat": 48.609,
    "long": -68.208
  },
  {
    "id": 202,
    "city": "Gore Bay",
    "country": "Canada",
    "lat": 45.885,
    "long": -82.568
  },
  {
    "id": 203,
    "city": "Yellowknife",
    "country": "Canada",
    "lat": 62.463,
    "long": -114.44
  },
  {
    "id": 204,
    "city": "Slave Lake",
    "country": "Canada",
    "lat": 55.293,
    "long": -114.778
  },
  {
    "id": 205,
    "city": "Sandspit",
    "country": "Canada",
    "lat": 53.254,
    "long": -131.814
  },
  {
    "id": 206,
    "city": "Sarnia",
    "country": "Canada",
    "lat": 42.999,
    "long": -82.309
  },
  {
    "id": 207,
    "city": "Port Hardy",
    "country": "Canada",
    "lat": 50.681,
    "long": -127.367
  },
  {
    "id": 208,
    "city": "Whitecourt",
    "country": "Canada",
    "lat": 54.144,
    "long": -115.787
  },
  {
    "id": 209,
    "city": "Sept-iles",
    "country": "Canada",
    "lat": 50.223,
    "long": -66.266
  },
  {
    "id": 210,
    "city": "Teslin",
    "country": "Canada",
    "lat": 60.173,
    "long": -132.743
  },
  {
    "id": 211,
    "city": "Greenwood",
    "country": "Canada",
    "lat": 44.984,
    "long": -64.917
  },
  {
    "id": 212,
    "city": "Faro",
    "country": "Canada",
    "lat": 62.208,
    "long": -133.376
  },
  {
    "id": 213,
    "city": "Fort Mcpherson",
    "country": "Canada",
    "lat": 67.408,
    "long": -134.86
  },
  {
    "id": 214,
    "city": "Blida",
    "country": "Algeria",
    "lat": 36.504,
    "long": 2.814
  },
  {
    "id": 215,
    "city": "Bou Saada",
    "country": "Algeria",
    "lat": 35.333,
    "long": 4.206
  },
  {
    "id": 216,
    "city": "Bejaja",
    "country": "Algeria",
    "lat": 36.712,
    "long": 5.07
  },
  {
    "id": 217,
    "city": "Algier",
    "country": "Algeria",
    "lat": 36.691,
    "long": 3.215
  },
  {
    "id": 218,
    "city": "Djanet",
    "country": "Algeria",
    "lat": 24.293,
    "long": 9.452
  },
  {
    "id": 219,
    "city": "Boufarik",
    "country": "Algeria",
    "lat": 36.546,
    "long": 2.876
  },
  {
    "id": 220,
    "city": "Telergma",
    "country": "Algeria",
    "lat": 36.109,
    "long": 6.364
  },
  {
    "id": 221,
    "city": "Reggan",
    "country": "Algeria",
    "lat": 26.71,
    "long": 0.286
  },
  {
    "id": 222,
    "city": "Illizi",
    "country": "Algeria",
    "lat": 26.573,
    "long": 8.484
  },
  {
    "id": 223,
    "city": "Ain Oussera",
    "country": "Algeria",
    "lat": 35.525,
    "long": 2.879
  },
  {
    "id": 224,
    "city": "Setif",
    "country": "Algeria",
    "lat": 36.178,
    "long": 5.324
  },
  {
    "id": 225,
    "city": "Tamanrasset",
    "country": "Algeria",
    "lat": 22.811,
    "long": 5.451
  },
  {
    "id": 226,
    "city": "Jijel",
    "country": "Algeria",
    "lat": 36.795,
    "long": 5.873
  },
  {
    "id": 227,
    "city": "Mecheria",
    "country": "Algeria",
    "lat": 33.536,
    "long": -0.242
  },
  {
    "id": 228,
    "city": "Relizane",
    "country": "Algeria",
    "lat": 35.752,
    "long": 0.626
  },
  {
    "id": 229,
    "city": "Annaba",
    "country": "Algeria",
    "lat": 36.822,
    "long": 7.809
  },
  {
    "id": 230,
    "city": "Constantine",
    "country": "Algeria",
    "lat": 36.277,
    "long": 6.624
  },
  {
    "id": 231,
    "city": "Tebessa",
    "country": "Algeria",
    "lat": 35.431,
    "long": 8.121
  },
  {
    "id": 232,
    "city": "Tilrempt",
    "country": "Algeria",
    "lat": 32.93,
    "long": 3.312
  },
  {
    "id": 233,
    "city": "Tiaret",
    "country": "Algeria",
    "lat": 35.341,
    "long": 1.463
  },
  {
    "id": 234,
    "city": "Bou Sfer",
    "country": "Algeria",
    "lat": 35.735,
    "long": -0.805
  },
  {
    "id": 235,
    "city": "Tindouf",
    "country": "Algeria",
    "lat": 27.7,
    "long": -8.167
  },
  {
    "id": 236,
    "city": "Ech-cheliff",
    "country": "Algeria",
    "lat": 36.213,
    "long": 1.332
  },
  {
    "id": 237,
    "city": "Oran",
    "country": "Algeria",
    "lat": 35.542,
    "long": -0.532
  },
  {
    "id": 238,
    "city": "Tlemcen",
    "country": "Algeria",
    "lat": 35.017,
    "long": -1.45
  },
  {
    "id": 240,
    "city": "Sidi Bel Abbes",
    "country": "Algeria",
    "lat": 35.172,
    "long": -0.593
  },
  {
    "id": 241,
    "city": "Ghriss",
    "country": "Algeria",
    "lat": 35.208,
    "long": 0.147
  },
  {
    "id": 242,
    "city": "Adrar",
    "country": "Algeria",
    "lat": 27.837,
    "long": -0.186
  },
  {
    "id": 243,
    "city": "Biskra",
    "country": "Algeria",
    "lat": 34.793,
    "long": 5.738
  },
  {
    "id": 244,
    "city": "El Golea",
    "country": "Algeria",
    "lat": 30.571,
    "long": 2.859
  },
  {
    "id": 245,
    "city": "Ghardaia",
    "country": "Algeria",
    "lat": 32.384,
    "long": 3.794
  },
  {
    "id": 246,
    "city": "Hassi-messaoud",
    "country": "Algeria",
    "lat": 31.673,
    "long": 6.14
  },
  {
    "id": 247,
    "city": "In Salah",
    "country": "Algeria",
    "lat": 27.251,
    "long": 2.512
  },
  {
    "id": 248,
    "city": "Touggourt",
    "country": "Algeria",
    "lat": 33.068,
    "long": 6.089
  },
  {
    "id": 249,
    "city": "Laghouat",
    "country": "Algeria",
    "lat": 33.764,
    "long": 2.927
  },
  {
    "id": 250,
    "city": "Timimoun",
    "country": "Algeria",
    "lat": 29.237,
    "long": 0.276
  },
  {
    "id": 251,
    "city": "Ouargla",
    "country": "Algeria",
    "lat": 31.917,
    "long": 5.413
  },
  {
    "id": 252,
    "city": "Zarzaitine",
    "country": "Algeria",
    "lat": 28.051,
    "long": 9.643
  },
  {
    "id": 253,
    "city": "Cotonou",
    "country": "Benin",
    "lat": 6.357,
    "long": 2.384
  },
  {
    "id": 254,
    "city": "Parakou",
    "country": "Benin",
    "lat": 9.357,
    "long": 2.609
  },
  {
    "id": 255,
    "city": "Ouagadougou",
    "country": "Burkina Faso",
    "lat": 12.353,
    "long": -1.512
  },
  {
    "id": 256,
    "city": "Bobo-dioulasso",
    "country": "Burkina Faso",
    "lat": 11.16,
    "long": -4.331
  },
  {
    "id": 257,
    "city": "Accra",
    "country": "Ghana",
    "lat": 5.603,
    "long": -0.168
  },
  {
    "id": 258,
    "city": "Tamale",
    "country": "Ghana",
    "lat": 9.563,
    "long": -0.863
  },
  {
    "id": 259,
    "city": "Wa",
    "country": "Ghana",
    "lat": 10.082,
    "long": -2.507
  },
  {
    "id": 260,
    "city": "Sunyani",
    "country": "Ghana",
    "lat": 7.362,
    "long": -2.329
  },
  {
    "id": 261,
    "city": "Takoradi",
    "country": "Ghana",
    "lat": 4.893,
    "long": -1.775
  },
  {
    "id": 262,
    "city": "Abidjan",
    "country": "Ivory Coast",
    "lat": 5.26,
    "long": -3.926
  },
  {
    "id": 263,
    "city": "Bouake",
    "country": "Ivory Coast",
    "lat": 7.739,
    "long": -5.074
  },
  {
    "id": 264,
    "city": "Daloa",
    "country": "Ivory Coast",
    "lat": 6.792,
    "long": -6.473
  },
  {
    "id": 265,
    "city": "Korhogo",
    "country": "Ivory Coast",
    "lat": 9.387,
    "long": -5.556
  },
  {
    "id": 266,
    "city": "Man",
    "country": "Ivory Coast",
    "lat": 7.272,
    "long": -7.587
  },
  {
    "id": 267,
    "city": "San Pedro",
    "country": "Ivory Coast",
    "lat": 4.747,
    "long": -6.661
  },
  {
    "id": 268,
    "city": "Yamoussoukro",
    "country": "Ivory Coast",
    "lat": 6.903,
    "long": -5.366
  },
  {
    "id": 269,
    "city": "Abuja",
    "country": "Nigeria",
    "lat": 9.007,
    "long": 7.263
  },
  {
    "id": 270,
    "city": "Akure",
    "country": "Nigeria",
    "lat": 7.247,
    "long": 5.301
  },
  {
    "id": 271,
    "city": "Benin",
    "country": "Nigeria",
    "lat": 6.317,
    "long": 5.599
  },
  {
    "id": 272,
    "city": "Calabar",
    "country": "Nigeria",
    "lat": 4.976,
    "long": 8.347
  },
  {
    "id": 273,
    "city": "Enugu",
    "country": "Nigeria",
    "lat": 6.474,
    "long": 7.562
  },
  {
    "id": 274,
    "city": "Gusau",
    "country": "Nigeria",
    "lat": 12.172,
    "long": 6.696
  },
  {
    "id": 275,
    "city": "Ibadan",
    "country": "Nigeria",
    "lat": 7.362,
    "long": 3.978
  },
  {
    "id": 276,
    "city": "Ilorin",
    "country": "Nigeria",
    "lat": 8.44,
    "long": 4.494
  },
  {
    "id": 277,
    "city": "Jos",
    "country": "Nigeria",
    "lat": 9.64,
    "long": 8.869
  },
  {
    "id": 278,
    "city": "Kaduna",
    "country": "Nigeria",
    "lat": 10.696,
    "long": 7.32
  },
  {
    "id": 279,
    "city": "Kano",
    "country": "Nigeria",
    "lat": 12.047,
    "long": 8.524
  },
  {
    "id": 280,
    "city": "Maiduguri",
    "country": "Nigeria",
    "lat": 11.855,
    "long": 13.081
  },
  {
    "id": 281,
    "city": "Makurdi",
    "country": "Nigeria",
    "lat": 7.704,
    "long": 8.614
  },
  {
    "id": 282,
    "city": "Lagos",
    "country": "Nigeria",
    "lat": 6.577,
    "long": 3.321
  },
  {
    "id": 283,
    "city": "Minna",
    "country": "Nigeria",
    "lat": 9.652,
    "long": 6.462
  },
  {
    "id": 284,
    "city": "Port Hartcourt",
    "country": "Nigeria",
    "lat": 5.015,
    "long": 6.949
  },
  {
    "id": 285,
    "city": "Sokoto",
    "country": "Nigeria",
    "lat": 12.916,
    "long": 5.207
  },
  {
    "id": 286,
    "city": "Yola",
    "country": "Nigeria",
    "lat": 9.26,
    "long": 12.43
  },
  {
    "id": 287,
    "city": "Zaria",
    "country": "Nigeria",
    "lat": 11.13,
    "long": 7.686
  },
  {
    "id": 288,
    "city": "Maradi",
    "country": "Niger",
    "lat": 13.502,
    "long": 7.127
  },
  {
    "id": 289,
    "city": "Niamey",
    "country": "Niger",
    "lat": 13.481,
    "long": 2.184
  },
  {
    "id": 290,
    "city": "Tahoua",
    "country": "Niger",
    "lat": 14.876,
    "long": 5.265
  },
  {
    "id": 291,
    "city": "Agadez",
    "country": "Niger",
    "lat": 16.965,
    "long": 7.997
  },
  {
    "id": 292,
    "city": "Dirkou",
    "country": "Niger",
    "lat": 18.969,
    "long": 12.869
  },
  {
    "id": 293,
    "city": "Diffa",
    "country": "Niger",
    "lat": 13.373,
    "long": 12.627
  },
  {
    "id": 294,
    "city": "Zinder",
    "country": "Niger",
    "lat": 13.779,
    "long": 8.984
  },
  {
    "id": 295,
    "city": "Tanout",
    "country": "Niger",
    "lat": 14.999,
    "long": 8.767
  },
  {
    "id": 296,
    "city": "Monastir",
    "country": "Tunisia",
    "lat": 35.758,
    "long": 10.755
  },
  {
    "id": 297,
    "city": "Tunis",
    "country": "Tunisia",
    "lat": 36.851,
    "long": 10.227
  },
  {
    "id": 298,
    "city": "Bizerte",
    "country": "Tunisia",
    "lat": 37.245,
    "long": 9.791
  },
  {
    "id": 299,
    "city": "Remada",
    "country": "Tunisia",
    "lat": 32.306,
    "long": 10.382
  },
  {
    "id": 300,
    "city": "Gafsa",
    "country": "Tunisia",
    "lat": 34.422,
    "long": 8.822
  },
  {
    "id": 301,
    "city": "Gabes",
    "country": "Tunisia",
    "lat": 33.877,
    "long": 10.103
  },
  {
    "id": 302,
    "city": "Bordj El Amri",
    "country": "Tunisia",
    "lat": 36.721,
    "long": 9.943
  },
  {
    "id": 303,
    "city": "Djerba",
    "country": "Tunisia",
    "lat": 33.875,
    "long": 10.775
  },
  {
    "id": 304,
    "city": "El Borma",
    "country": "Tunisia",
    "lat": 31.704,
    "long": 9.254
  },
  {
    "id": 305,
    "city": "Sfax",
    "country": "Tunisia",
    "lat": 34.718,
    "long": 10.691
  },
  {
    "id": 306,
    "city": "Tozeur",
    "country": "Tunisia",
    "lat": 33.94,
    "long": 8.111
  },
  {
    "id": 307,
    "city": "Niatougou",
    "country": "Togo",
    "lat": 9.767,
    "long": 1.091
  },
  {
    "id": 308,
    "city": "Lome",
    "country": "Togo",
    "lat": 6.166,
    "long": 1.254
  },
  {
    "id": 309,
    "city": "Antwerp",
    "country": "Belgium",
    "lat": 51.19,
    "long": 4.463
  },
  {
    "id": 310,
    "city": "Beauvechain",
    "country": "Belgium",
    "lat": 50.759,
    "long": 4.768
  },
  {
    "id": 311,
    "city": "Kleine Brogel",
    "country": "Belgium",
    "lat": 51.168,
    "long": 5.471
  },
  {
    "id": 312,
    "city": "Brussels",
    "country": "Belgium",
    "lat": 50.902,
    "long": 4.499
  },
  {
    "id": 313,
    "city": "Brasschaat",
    "country": "Belgium",
    "lat": 51.333,
    "long": 4.5
  },
  {
    "id": 314,
    "city": "Bertrix",
    "country": "Belgium",
    "lat": 49.887,
    "long": 5.229
  },
  {
    "id": 315,
    "city": "Charleroi",
    "country": "Belgium",
    "lat": 50.459,
    "long": 4.454
  },
  {
    "id": 316,
    "city": "Chievres",
    "country": "Belgium",
    "lat": 50.576,
    "long": 3.831
  },
  {
    "id": 317,
    "city": "Koksijde",
    "country": "Belgium",
    "lat": 51.09,
    "long": 2.653
  },
  {
    "id": 318,
    "city": "Florennes",
    "country": "Belgium",
    "lat": 50.244,
    "long": 4.649
  },
  {
    "id": 319,
    "city": "Kortrijk-vevelgem",
    "country": "Belgium",
    "lat": 50.818,
    "long": 3.208
  },
  {
    "id": 320,
    "city": "Liege",
    "country": "Belgium",
    "lat": 50.637,
    "long": 5.443
  },
  {
    "id": 321,
    "city": "Ostend",
    "country": "Belgium",
    "lat": 51.199,
    "long": 2.862
  },
  {
    "id": 322,
    "city": "Zutendaal",
    "country": "Belgium",
    "lat": 50.948,
    "long": 5.592
  },
  {
    "id": 323,
    "city": "Sint-truiden",
    "country": "Belgium",
    "lat": 50.788,
    "long": 5.193
  },
  {
    "id": 324,
    "city": "Ursel",
    "country": "Belgium",
    "lat": 51.144,
    "long": 3.474
  },
  {
    "id": 325,
    "city": "Weelde",
    "country": "Belgium",
    "lat": 51.395,
    "long": 4.961
  },
  {
    "id": 326,
    "city": "Zoersel",
    "country": "Belgium",
    "lat": 51.266,
    "long": 4.755
  },
  {
    "id": 327,
    "city": "Bautzen",
    "country": "Germany",
    "lat": 51.193,
    "long": 14.52
  },
  {
    "id": 328,
    "city": "Altenburg",
    "country": "Germany",
    "lat": 50.982,
    "long": 12.506
  },
  {
    "id": 329,
    "city": "Dessau",
    "country": "Germany",
    "lat": 51.832,
    "long": 12.186
  },
  {
    "id": 330,
    "city": "Eisenhuettenstadt",
    "country": "Germany",
    "lat": 52.197,
    "long": 14.586
  },
  {
    "id": 331,
    "city": "Heringsdorf",
    "country": "Germany",
    "lat": 53.879,
    "long": 14.152
  },
  {
    "id": 332,
    "city": "Suhl",
    "country": "Germany",
    "lat": 51.308,
    "long": 13.555
  },
  {
    "id": 333,
    "city": "Muehlhausen",
    "country": "Germany",
    "lat": 51.363,
    "long": 11.941
  },
  {
    "id": 334,
    "city": "Halle",
    "country": "Germany",
    "lat": 51.552,
    "long": 12.053
  },
  {
    "id": 335,
    "city": "Riesa",
    "country": "Germany",
    "lat": 51.294,
    "long": 13.359
  },
  {
    "id": 336,
    "city": "Rechlin-laerz",
    "country": "Germany",
    "lat": 53.306,
    "long": 12.753
  },
  {
    "id": 337,
    "city": "Strausberg",
    "country": "Germany",
    "lat": 52.58,
    "long": 13.916
  },
  {
    "id": 338,
    "city": "Schoenhagen",
    "country": "Germany",
    "lat": 52.203,
    "long": 13.159
  },
  {
    "id": 339,
    "city": "Cochstedt",
    "country": "Germany",
    "lat": 51.856,
    "long": 11.418
  },
  {
    "id": 340,
    "city": "Gotha Ost",
    "country": "Germany",
    "lat": 35.461,
    "long": -77.965
  },
  {
    "id": 341,
    "city": "Barth",
    "country": "Germany",
    "lat": 54.338,
    "long": 12.71
  },
  {
    "id": 342,
    "city": "Jena",
    "country": "Germany",
    "lat": 50.917,
    "long": 11.714
  },
  {
    "id": 343,
    "city": "Kyritz",
    "country": "Germany",
    "lat": 52.919,
    "long": 12.425
  },
  {
    "id": 344,
    "city": "Magdeburg",
    "country": "Germany",
    "lat": 52.074,
    "long": 11.626
  },
  {
    "id": 345,
    "city": "Neubrandenburg",
    "country": "Germany",
    "lat": 51.328,
    "long": 12.657
  },
  {
    "id": 346,
    "city": "Rothenburg/ol",
    "country": "Germany",
    "lat": 51.364,
    "long": 14.952
  },
  {
    "id": 347,
    "city": "Anklam",
    "country": "Germany",
    "lat": 53.833,
    "long": 13.669
  },
  {
    "id": 348,
    "city": "Cottbus",
    "country": "Germany",
    "lat": 51.889,
    "long": 14.532
  },
  {
    "id": 349,
    "city": "Koethen",
    "country": "Germany",
    "lat": 51.721,
    "long": 11.962
  },
  {
    "id": 350,
    "city": "Kamenz",
    "country": "Germany",
    "lat": 51.296,
    "long": 14.129
  },
  {
    "id": 351,
    "city": "Berlin",
    "country": "Germany",
    "lat": 52.38,
    "long": 13.523
  },
  {
    "id": 352,
    "city": "Dresden",
    "country": "Germany",
    "lat": 51.133,
    "long": 13.767
  },
  {
    "id": 353,
    "city": "Erfurt",
    "country": "Germany",
    "lat": 50.98,
    "long": 10.958
  },
  {
    "id": 354,
    "city": "Frankfurt",
    "country": "Germany",
    "lat": 50.026,
    "long": 8.543
  },
  {
    "id": 355,
    "city": "Muenster/osnabrueck",
    "country": "Germany",
    "lat": 52.134,
    "long": 7.685
  },
  {
    "id": 356,
    "city": "Hamburg",
    "country": "Germany",
    "lat": 53.63,
    "long": 9.988
  },
  {
    "id": 358,
    "city": "Cologne",
    "country": "Germany",
    "lat": 50.866,
    "long": 7.143
  },
  {
    "id": 359,
    "city": "Duesseldorf",
    "country": "Germany",
    "lat": 51.289,
    "long": 6.767
  },
  {
    "id": 360,
    "city": "Munich",
    "country": "Germany",
    "lat": 48.354,
    "long": 11.786
  },
  {
    "id": 361,
    "city": "Nuernberg",
    "country": "Germany",
    "lat": 49.499,
    "long": 11.078
  },
  {
    "id": 362,
    "city": "Leipzig",
    "country": "Germany",
    "lat": 51.424,
    "long": 12.236
  },
  {
    "id": 363,
    "city": "Saarbruecken",
    "country": "Germany",
    "lat": 49.214,
    "long": 7.109
  },
  {
    "id": 364,
    "city": "Stuttgart",
    "country": "Germany",
    "lat": 48.69,
    "long": 9.222
  },
  {
    "id": 366,
    "city": "Hannover",
    "country": "Germany",
    "lat": 52.461,
    "long": 9.685
  },
  {
    "id": 367,
    "city": "Bremen",
    "country": "Germany",
    "lat": 53.047,
    "long": 8.787
  },
  {
    "id": 368,
    "city": "Egelsbach",
    "country": "Germany",
    "lat": 49.961,
    "long": 8.644
  },
  {
    "id": 369,
    "city": "Hahn",
    "country": "Germany",
    "lat": 49.95,
    "long": 7.264
  },
  {
    "id": 370,
    "city": "Mannheim",
    "country": "Germany",
    "lat": 49.473,
    "long": 8.514
  },
  {
    "id": 371,
    "city": "Allendorf",
    "country": "Germany",
    "lat": 51.035,
    "long": 8.679
  },
  {
    "id": 372,
    "city": "Worms",
    "country": "Germany",
    "lat": 49.606,
    "long": 8.368
  },
  {
    "id": 373,
    "city": "Mainz",
    "country": "Germany",
    "lat": 49.969,
    "long": 8.147
  },
  {
    "id": 374,
    "city": "Eisenach",
    "country": "Germany",
    "lat": 50.993,
    "long": 10.473
  },
  {
    "id": 375,
    "city": "Siegerland",
    "country": "Germany",
    "lat": 50.708,
    "long": 8.082
  },
  {
    "id": 377,
    "city": "Kiel",
    "country": "Germany",
    "lat": 54.379,
    "long": 10.145
  },
  {
    "id": 378,
    "city": "Luebeck",
    "country": "Germany",
    "lat": 53.805,
    "long": 10.719
  },
  {
    "id": 379,
    "city": "Aachen",
    "country": "Germany",
    "lat": 50.823,
    "long": 6.187
  },
  {
    "id": 380,
    "city": "Dahlemer Binz",
    "country": "Germany",
    "lat": 50.406,
    "long": 6.528
  },
  {
    "id": 381,
    "city": "Meinerzhagen",
    "country": "Germany",
    "lat": 51.099,
    "long": 7.602
  },
  {
    "id": 382,
    "city": "Arnsberg",
    "country": "Germany",
    "lat": 51.483,
    "long": 7.899
  },
  {
    "id": 383,
    "city": "Kamp",
    "country": "Germany",
    "lat": 51.53,
    "long": 6.537
  },
  {
    "id": 384,
    "city": "Essen",
    "country": "Germany",
    "lat": 51.401,
    "long": 6.936
  },
  {
    "id": 385,
    "city": "Moenchengladbach",
    "country": "Germany",
    "lat": 51.23,
    "long": 6.504
  },
  {
    "id": 386,
    "city": "Paderborn",
    "country": "Germany",
    "lat": 51.614,
    "long": 8.616
  },
  {
    "id": 387,
    "city": "Stadtlohn",
    "country": "Germany",
    "lat": 51.996,
    "long": 6.84
  },
  {
    "id": 388,
    "city": "Dortmund",
    "country": "Germany",
    "lat": 51.518,
    "long": 7.612
  },
  {
    "id": 389,
    "city": "Augsburg",
    "country": "Germany",
    "lat": 48.425,
    "long": 10.932
  },
  {
    "id": 390,
    "city": "Biberach",
    "country": "Germany",
    "lat": 48.111,
    "long": 9.763
  },
  {
    "id": 391,
    "city": "Eggenfelden",
    "country": "Germany",
    "lat": 48.396,
    "long": 12.724
  },
  {
    "id": 392,
    "city": "Oberpfaffenhofen",
    "country": "Germany",
    "lat": 48.081,
    "long": 11.283
  },
  {
    "id": 393,
    "city": "Straubing",
    "country": "Germany",
    "lat": 48.901,
    "long": 12.518
  },
  {
    "id": 394,
    "city": "Vilshofen",
    "country": "Germany",
    "lat": 48.636,
    "long": 13.195
  },
  {
    "id": 395,
    "city": "Leutkirch",
    "country": "Germany",
    "lat": 47.859,
    "long": 10.014
  },
  {
    "id": 396,
    "city": "Friedrichshafen",
    "country": "Germany",
    "lat": 47.671,
    "long": 9.511
  },
  {
    "id": 397,
    "city": "Parchim",
    "country": "Germany",
    "lat": 53.427,
    "long": 11.783
  },
  {
    "id": 398,
    "city": "Stendal",
    "country": "Germany",
    "lat": 52.629,
    "long": 11.82
  },
  {
    "id": 399,
    "city": "Aalen-heidenheim",
    "country": "Germany",
    "lat": 48.778,
    "long": 10.264
  },
  {
    "id": 400,
    "city": "Coburg",
    "country": "Germany",
    "lat": 50.263,
    "long": 10.996
  },
  {
    "id": 401,
    "city": "Bayreuth",
    "country": "Germany",
    "lat": 49.984,
    "long": 11.638
  },
  {
    "id": 402,
    "city": "Burg Feuerstein",
    "country": "Germany",
    "lat": 49.794,
    "long": 11.132
  },
  {
    "id": 403,
    "city": "Hof",
    "country": "Germany",
    "lat": 50.289,
    "long": 11.855
  },
  {
    "id": 404,
    "city": "Rosenthal",
    "country": "Germany",
    "lat": 49.863,
    "long": 11.788
  },
  {
    "id": 405,
    "city": "Hassfurt",
    "country": "Germany",
    "lat": 50.018,
    "long": 10.529
  },
  {
    "id": 406,
    "city": "Koblenz",
    "country": "Germany",
    "lat": 50.325,
    "long": 7.531
  },
  {
    "id": 407,
    "city": "Trier",
    "country": "Germany",
    "lat": 49.863,
    "long": 6.789
  },
  {
    "id": 408,
    "city": "Speyer",
    "country": "Germany",
    "lat": 49.302,
    "long": 8.451
  },
  {
    "id": 409,
    "city": "Zweibruecken",
    "country": "Germany",
    "lat": 49.209,
    "long": 7.401
  },
  {
    "id": 410,
    "city": "Baden-baden",
    "country": "Germany",
    "lat": 48.791,
    "long": 8.187
  },
  {
    "id": 411,
    "city": "Donaueschingen",
    "country": "Germany",
    "lat": 47.973,
    "long": 8.522
  },
  {
    "id": 412,
    "city": "Freiburg",
    "country": "Germany",
    "lat": 48.02,
    "long": 7.834
  },
  {
    "id": 413,
    "city": "Karlsruhe",
    "country": "Germany",
    "lat": 48.982,
    "long": 8.333
  },
  {
    "id": 414,
    "city": "Mengen",
    "country": "Germany",
    "lat": 48.054,
    "long": 9.373
  },
  {
    "id": 415,
    "city": "Schwaebisch Hall",
    "country": "Germany",
    "lat": 49.118,
    "long": 9.777
  },
  {
    "id": 416,
    "city": "Soest",
    "country": "Germany",
    "lat": 51.608,
    "long": 13.738
  },
  {
    "id": 417,
    "city": "Braunschweig",
    "country": "Germany",
    "lat": 52.319,
    "long": 10.556
  },
  {
    "id": 418,
    "city": "Kassel",
    "country": "Germany",
    "lat": 51.408,
    "long": 9.378
  },
  {
    "id": 419,
    "city": "Hildesheim",
    "country": "Germany",
    "lat": 52.177,
    "long": 9.946
  },
  {
    "id": 420,
    "city": "Bremerhaven",
    "country": "Germany",
    "lat": 53.503,
    "long": 8.573
  },
  {
    "id": 421,
    "city": "Lemwerder",
    "country": "Germany",
    "lat": 53.143,
    "long": 8.623
  },
  {
    "id": 422,
    "city": "Emden",
    "country": "Germany",
    "lat": 53.391,
    "long": 7.227
  },
  {
    "id": 423,
    "city": "Leer",
    "country": "Germany",
    "lat": 53.272,
    "long": 7.443
  },
  {
    "id": 424,
    "city": "Wilhelmshaven",
    "country": "Germany",
    "lat": 53.505,
    "long": 8.053
  },
  {
    "id": 425,
    "city": "Borkum",
    "country": "Germany",
    "lat": 53.595,
    "long": 6.709
  },
  {
    "id": 426,
    "city": "Norderney",
    "country": "Germany",
    "lat": 53.707,
    "long": 7.23
  },
  {
    "id": 427,
    "city": "Flensburg",
    "country": "Germany",
    "lat": 54.772,
    "long": 9.378
  },
  {
    "id": 428,
    "city": "Rendsburg",
    "country": "Germany",
    "lat": 54.221,
    "long": 9.601
  },
  {
    "id": 429,
    "city": "Westerland",
    "country": "Germany",
    "lat": 54.913,
    "long": 8.34
  },
  {
    "id": 430,
    "city": "Armari Air Force Base",
    "country": "Estonia",
    "lat": 59.259,
    "long": 24.204
  },
  {
    "id": 431,
    "city": "Kardla",
    "country": "Estonia",
    "lat": 58.991,
    "long": 22.831
  },
  {
    "id": 432,
    "city": "Kuressaare",
    "country": "Estonia",
    "lat": 58.23,
    "long": 22.509
  },
  {
    "id": 433,
    "city": "Parnu",
    "country": "Estonia",
    "lat": 58.419,
    "long": 24.473
  },
  {
    "id": 434,
    "city": "Tallinn-ulemiste International",
    "country": "Estonia",
    "lat": 59.413,
    "long": 24.833
  },
  {
    "id": 435,
    "city": "Tartu-ulenurme",
    "country": "Estonia",
    "lat": 58.307,
    "long": 26.69
  },
  {
    "id": 436,
    "city": "Enontekio",
    "country": "Finland",
    "lat": 68.362,
    "long": 23.424
  },
  {
    "id": 437,
    "city": "Eura",
    "country": "Finland",
    "lat": 61.116,
    "long": 22.201
  },
  {
    "id": 438,
    "city": "Halli",
    "country": "Finland",
    "lat": 61.856,
    "long": 24.786
  },
  {
    "id": 439,
    "city": "Helsinki",
    "country": "Finland",
    "lat": 60.254,
    "long": 25.043
  },
  {
    "id": 441,
    "city": "Hameenkyro",
    "country": "Finland",
    "lat": 61.689,
    "long": 23.074
  },
  {
    "id": 442,
    "city": "Hanko",
    "country": "Finland",
    "lat": 59.849,
    "long": 23.083
  },
  {
    "id": 443,
    "city": "Hyvinkaa",
    "country": "Finland",
    "lat": 60.654,
    "long": 24.881
  },
  {
    "id": 444,
    "city": "Kikala",
    "country": "Finland",
    "lat": 60.463,
    "long": 23.652
  },
  {
    "id": 445,
    "city": "Immola",
    "country": "Finland",
    "lat": 61.249,
    "long": 28.904
  },
  {
    "id": 446,
    "city": "Kitee",
    "country": "Finland",
    "lat": 62.166,
    "long": 30.074
  },
  {
    "id": 447,
    "city": "Ivalo",
    "country": "Finland",
    "lat": 68.607,
    "long": 27.405
  },
  {
    "id": 448,
    "city": "Joensuu",
    "country": "Finland",
    "lat": 62.659,
    "long": 29.624
  },
  {
    "id": 449,
    "city": "Jyvaskyla",
    "country": "Finland",
    "lat": 62.399,
    "long": 25.678
  },
  {
    "id": 450,
    "city": "Kauhava",
    "country": "Finland",
    "lat": 63.127,
    "long": 23.051
  },
  {
    "id": 451,
    "city": "Kemi",
    "country": "Finland",
    "lat": 65.782,
    "long": 24.599
  },
  {
    "id": 452,
    "city": "Kajaani",
    "country": "Finland",
    "lat": 64.285,
    "long": 27.692
  },
  {
    "id": 453,
    "city": "Kauhajoki",
    "country": "Finland",
    "lat": 62.463,
    "long": 22.393
  },
  {
    "id": 454,
    "city": "Kruunupyy",
    "country": "Finland",
    "lat": 63.721,
    "long": 23.143
  },
  {
    "id": 455,
    "city": "Kemijarvi",
    "country": "Finland",
    "lat": 66.713,
    "long": 27.157
  },
  {
    "id": 456,
    "city": "Kuusamo",
    "country": "Finland",
    "lat": 65.987,
    "long": 29.239
  },
  {
    "id": 457,
    "city": "Kittila",
    "country": "Finland",
    "lat": 67.701,
    "long": 24.847
  },
  {
    "id": 458,
    "city": "Kuopio",
    "country": "Finland",
    "lat": 63.007,
    "long": 27.798
  },
  {
    "id": 459,
    "city": "Vesivehmaa",
    "country": "Finland",
    "lat": 61.144,
    "long": 25.693
  },
  {
    "id": 460,
    "city": "Lappeenranta",
    "country": "Finland",
    "lat": 61.044,
    "long": 28.144
  },
  {
    "id": 461,
    "city": "Mariehamn",
    "country": "Finland",
    "lat": 60.122,
    "long": 19.898
  },
  {
    "id": 462,
    "city": "Menkijarvi",
    "country": "Finland",
    "lat": 62.947,
    "long": 23.519
  },
  {
    "id": 463,
    "city": "Mikkeli",
    "country": "Finland",
    "lat": 61.686,
    "long": 27.202
  },
  {
    "id": 464,
    "city": "Nummela",
    "country": "Finland",
    "lat": 60.334,
    "long": 24.296
  },
  {
    "id": 465,
    "city": "Oulu",
    "country": "Finland",
    "lat": 64.93,
    "long": 25.354
  },
  {
    "id": 466,
    "city": "Piikajarvi",
    "country": "Finland",
    "lat": 61.246,
    "long": 22.193
  },
  {
    "id": 467,
    "city": "Pori",
    "country": "Finland",
    "lat": 61.462,
    "long": 21.8
  },
  {
    "id": 468,
    "city": "Pudasjarvi",
    "country": "Finland",
    "lat": 65.402,
    "long": 26.947
  },
  {
    "id": 469,
    "city": "Pyhasalmi",
    "country": "Finland",
    "lat": 63.732,
    "long": 25.926
  },
  {
    "id": 470,
    "city": "Pattijoki",
    "country": "Finland",
    "lat": 64.688,
    "long": 24.696
  },
  {
    "id": 471,
    "city": "Rantasalmi",
    "country": "Finland",
    "lat": 62.065,
    "long": 28.356
  },
  {
    "id": 472,
    "city": "Rovaniemi",
    "country": "Finland",
    "lat": 66.565,
    "long": 25.83
  },
  {
    "id": 473,
    "city": "Rayskala",
    "country": "Finland",
    "lat": 60.745,
    "long": 24.108
  },
  {
    "id": 474,
    "city": "Savonlinna",
    "country": "Finland",
    "lat": 61.943,
    "long": 28.945
  },
  {
    "id": 475,
    "city": "Selanpaa",
    "country": "Finland",
    "lat": 61.062,
    "long": 26.799
  },
  {
    "id": 476,
    "city": "Sodankyla",
    "country": "Finland",
    "lat": 67.395,
    "long": 26.619
  },
  {
    "id": 477,
    "city": "Tampere",
    "country": "Finland",
    "lat": 61.414,
    "long": 23.604
  },
  {
    "id": 478,
    "city": "Teisko",
    "country": "Finland",
    "lat": 61.773,
    "long": 24.027
  },
  {
    "id": 479,
    "city": "Turku",
    "country": "Finland",
    "lat": 60.514,
    "long": 22.263
  },
  {
    "id": 480,
    "city": "Utti",
    "country": "Finland",
    "lat": 60.896,
    "long": 26.938
  },
  {
    "id": 481,
    "city": "Vaasa",
    "country": "Finland",
    "lat": 63.051,
    "long": 21.761
  },
  {
    "id": 482,
    "city": "Varkaus",
    "country": "Finland",
    "lat": 62.171,
    "long": 27.869
  },
  {
    "id": 483,
    "city": "Ylivieska-raudaskyla",
    "country": "Finland",
    "lat": 64.06,
    "long": 24.716
  },
  {
    "id": 484,
    "city": "Belfast",
    "country": "North Ireland",
    "lat": 54.657,
    "long": -6.216
  },
  {
    "id": 485,
    "city": "Enniskillen",
    "country": "England",
    "lat": 54.399,
    "long": -7.652
  },
  {
    "id": 487,
    "city": "Londonderry",
    "country": "North Ireland",
    "lat": 55.043,
    "long": -7.161
  },
  {
    "id": 488,
    "city": "Birmingham",
    "country": "England",
    "lat": 52.454,
    "long": -1.748
  },
  {
    "id": 489,
    "city": "Coventry",
    "country": "England",
    "lat": 52.37,
    "long": -1.48
  },
  {
    "id": 490,
    "city": "Leicester",
    "country": "England",
    "lat": 52.608,
    "long": -1.032
  },
  {
    "id": 491,
    "city": "Golouchestershire",
    "country": "England",
    "lat": 51.894,
    "long": -2.167
  },
  {
    "id": 492,
    "city": "Nottingham",
    "country": "England",
    "lat": 52.92,
    "long": -1.079
  },
  {
    "id": 493,
    "city": "Halfpenny Green",
    "country": "England",
    "lat": 52.517,
    "long": -2.26
  },
  {
    "id": 494,
    "city": "Pailton",
    "country": "Uk",
    "lat": 51.668,
    "long": -2.057
  },
  {
    "id": 495,
    "city": "Turweston",
    "country": "Uk",
    "lat": 52.041,
    "long": -1.096
  },
  {
    "id": 496,
    "city": "Manchester",
    "country": "England",
    "lat": 53.354,
    "long": -2.275
  },
  {
    "id": 497,
    "city": "Woodfort",
    "country": "England",
    "lat": 53.338,
    "long": -2.149
  },
  {
    "id": 498,
    "city": "Sandtoft",
    "country": "Uk",
    "lat": 53.56,
    "long": -0.858
  },
  {
    "id": 499,
    "city": "Chivenor",
    "country": "England",
    "lat": 51.087,
    "long": -4.15
  },
  {
    "id": 500,
    "city": "Newquai",
    "country": "England",
    "lat": 50.441,
    "long": -4.995
  },
  {
    "id": 501,
    "city": "Lyneham",
    "country": "Uk",
    "lat": 51.505,
    "long": -1.993
  },
  {
    "id": 502,
    "city": "Boscombe Down",
    "country": "England",
    "lat": 51.152,
    "long": -1.747
  },
  {
    "id": 503,
    "city": "Culdrose",
    "country": "England",
    "lat": 50.086,
    "long": -5.256
  },
  {
    "id": 504,
    "city": "St. Athan",
    "country": "Uk",
    "lat": 51.405,
    "long": -3.436
  },
  {
    "id": 505,
    "city": "Yeovilton",
    "country": "Uk",
    "lat": 51.009,
    "long": -2.639
  },
  {
    "id": 506,
    "city": "Haverfordwest",
    "country": "England",
    "lat": 51.833,
    "long": -4.961
  },
  {
    "id": 507,
    "city": "Cardiff",
    "country": "Wales",
    "lat": 51.397,
    "long": -3.343
  },
  {
    "id": 508,
    "city": "Swansea",
    "country": "England",
    "lat": 51.605,
    "long": -4.068
  },
  {
    "id": 509,
    "city": "Bristol",
    "country": "England",
    "lat": 51.383,
    "long": -2.719
  },
  {
    "id": 510,
    "city": "Liverpool",
    "country": "England",
    "lat": 53.334,
    "long": -2.85
  },
  {
    "id": 511,
    "city": "London",
    "country": "England",
    "lat": 51.874,
    "long": -0.368
  },
  {
    "id": 512,
    "city": "Plymouth",
    "country": "England",
    "lat": 50.423,
    "long": -4.106
  },
  {
    "id": 513,
    "city": "Bournemouth",
    "country": "England",
    "lat": 50.78,
    "long": -1.843
  },
  {
    "id": 514,
    "city": "Southampton",
    "country": "England",
    "lat": 50.95,
    "long": -1.357
  },
  {
    "id": 515,
    "city": "Lasham",
    "country": "England",
    "lat": 51.185,
    "long": -1.032
  },
  {
    "id": 516,
    "city": "Guernsey",
    "country": "Guernsey Isld.",
    "lat": 49.435,
    "long": -2.602
  },
  {
    "id": 517,
    "city": "Jersey",
    "country": "England",
    "lat": 49.208,
    "long": -2.195
  },
  {
    "id": 518,
    "city": "Shoreham By Sea",
    "country": "England",
    "lat": 50.836,
    "long": -0.297
  },
  {
    "id": 519,
    "city": "Biggin Hill",
    "country": "England",
    "lat": 51.331,
    "long": 0.033
  },
  {
    "id": 522,
    "city": "Farnborough",
    "country": "England",
    "lat": 51.276,
    "long": -0.776
  },
  {
    "id": 523,
    "city": "Chalsgrove",
    "country": "England",
    "lat": 51.676,
    "long": -1.081
  },
  {
    "id": 524,
    "city": "Blackbushe",
    "country": "England",
    "lat": 51.324,
    "long": -0.848
  },
  {
    "id": 526,
    "city": "Southend",
    "country": "England",
    "lat": 51.571,
    "long": 0.696
  },
  {
    "id": 527,
    "city": "Lydd",
    "country": "Uk",
    "lat": 50.956,
    "long": 0.939
  },
  {
    "id": 528,
    "city": "Manston",
    "country": "England",
    "lat": 51.342,
    "long": 1.346
  },
  {
    "id": 529,
    "city": "Brough",
    "country": "England",
    "lat": 53.719,
    "long": -0.566
  },
  {
    "id": 530,
    "city": "Carlisle",
    "country": "England",
    "lat": 54.938,
    "long": -2.809
  },
  {
    "id": 531,
    "city": "Blackpool",
    "country": "England",
    "lat": 53.772,
    "long": -3.029
  },
  {
    "id": 532,
    "city": "Humberside",
    "country": "England",
    "lat": 53.574,
    "long": -0.351
  },
  {
    "id": 533,
    "city": "Barrow Island",
    "country": "England",
    "lat": 54.13,
    "long": -3.256
  },
  {
    "id": 534,
    "city": "Leeds",
    "country": "England",
    "lat": 53.866,
    "long": -1.661
  },
  {
    "id": 535,
    "city": "Warton",
    "country": "Uk",
    "lat": 53.745,
    "long": -2.883
  },
  {
    "id": 536,
    "city": "Hawarden",
    "country": "England",
    "lat": 53.178,
    "long": -2.978
  },
  {
    "id": 537,
    "city": "Isle Of Man",
    "country": "England",
    "lat": 54.083,
    "long": -4.624
  },
  {
    "id": 538,
    "city": "Newcastle",
    "country": "England",
    "lat": 55.038,
    "long": -1.692
  },
  {
    "id": 539,
    "city": "Teesside",
    "country": "England",
    "lat": 54.509,
    "long": -1.429
  },
  {
    "id": 540,
    "city": "East Midlands",
    "country": "England",
    "lat": 52.831,
    "long": -1.328
  },
  {
    "id": 541,
    "city": "Llanbedr",
    "country": "England",
    "lat": 52.812,
    "long": -4.123
  },
  {
    "id": 542,
    "city": "Ternhill",
    "country": "Uk",
    "lat": 52.871,
    "long": -2.533
  },
  {
    "id": 543,
    "city": "Mona",
    "country": "Uk",
    "lat": 53.258,
    "long": -4.373
  },
  {
    "id": 544,
    "city": "Shawbury",
    "country": "Uk",
    "lat": 52.798,
    "long": -2.668
  },
  {
    "id": 545,
    "city": "Valley",
    "country": "Uk",
    "lat": 53.248,
    "long": -4.535
  },
  {
    "id": 546,
    "city": "Woodvale",
    "country": "Uk",
    "lat": 53.581,
    "long": -3.055
  },
  {
    "id": 547,
    "city": "West Freugh",
    "country": "Uk",
    "lat": 54.851,
    "long": -4.948
  },
  {
    "id": 548,
    "city": "Kirkwall",
    "country": "Scotland",
    "lat": 58.958,
    "long": -2.905
  },
  {
    "id": 549,
    "city": "Sumburgh",
    "country": "Uk",
    "lat": 59.879,
    "long": -1.296
  },
  {
    "id": 550,
    "city": "Wick",
    "country": "Uk",
    "lat": 58.459,
    "long": -3.093
  },
  {
    "id": 551,
    "city": "Aberdeen",
    "country": "Uk",
    "lat": 57.204,
    "long": -2.2
  },
  {
    "id": 552,
    "city": "Inverness",
    "country": "Uk",
    "lat": 57.54,
    "long": -4.05
  },
  {
    "id": 553,
    "city": "Glasgow",
    "country": "Uk",
    "lat": 55.872,
    "long": -4.433
  },
  {
    "id": 554,
    "city": "Edinburgh",
    "country": "Uk",
    "lat": 55.95,
    "long": -3.373
  },
  {
    "id": 555,
    "city": "Islay",
    "country": "Uk",
    "lat": 55.682,
    "long": -6.257
  },
  {
    "id": 556,
    "city": "Prestwick",
    "country": "Uk",
    "lat": 55.508,
    "long": -4.587
  },
  {
    "id": 557,
    "city": "Benbecula",
    "country": "Uk",
    "lat": 57.481,
    "long": -7.363
  },
  {
    "id": 558,
    "city": "Scatsta",
    "country": "Uk",
    "lat": 60.432,
    "long": -1.298
  },
  {
    "id": 559,
    "city": "Dundee",
    "country": "Uk",
    "lat": 56.453,
    "long": -3.026
  },
  {
    "id": 560,
    "city": "Stornoway",
    "country": "Uk",
    "lat": 58.214,
    "long": -6.329
  },
  {
    "id": 561,
    "city": "Tiree",
    "country": "Uk",
    "lat": 56.499,
    "long": -6.869
  },
  {
    "id": 562,
    "city": "Leuchars",
    "country": "Uk",
    "lat": 56.373,
    "long": -2.868
  },
  {
    "id": 563,
    "city": "Lossiemouth",
    "country": "Uk",
    "lat": 57.705,
    "long": -3.339
  },
  {
    "id": 564,
    "city": "Bracknell",
    "country": "England",
    "lat": 51.383,
    "long": -0.783
  },
  {
    "id": 565,
    "city": "Cambridge",
    "country": "England",
    "lat": 52.205,
    "long": 0.175
  },
  {
    "id": 566,
    "city": "Peterborough",
    "country": "England",
    "lat": 52.468,
    "long": -0.251
  },
  {
    "id": 567,
    "city": "Norwich",
    "country": "England",
    "lat": 52.676,
    "long": 1.283
  },
  {
    "id": 569,
    "city": "North Weald",
    "country": "Uk",
    "lat": 51.722,
    "long": 0.154
  },
  {
    "id": 570,
    "city": "Fowlmere",
    "country": "England",
    "lat": 53.394,
    "long": -1.388
  },
  {
    "id": 571,
    "city": "Cranfield",
    "country": "England",
    "lat": 52.072,
    "long": -0.617
  },
  {
    "id": 572,
    "city": "Dunsfold",
    "country": "England",
    "lat": 51.117,
    "long": -0.534
  },
  {
    "id": 573,
    "city": "Exeter",
    "country": "England",
    "lat": 50.734,
    "long": -3.414
  },
  {
    "id": 575,
    "city": "Hatfield",
    "country": "England",
    "lat": 51.767,
    "long": 0.25
  },
  {
    "id": 576,
    "city": "Oxford",
    "country": "England",
    "lat": 51.837,
    "long": -1.32
  },
  {
    "id": 577,
    "city": "Benson",
    "country": "England",
    "lat": 51.616,
    "long": -1.096
  },
  {
    "id": 578,
    "city": "Lakenheath",
    "country": "England",
    "lat": 52.409,
    "long": 0.561
  },
  {
    "id": 579,
    "city": "Mildenhall",
    "country": "England",
    "lat": 52.361,
    "long": 0.488
  },
  {
    "id": 580,
    "city": "Wattisham",
    "country": "Uk",
    "lat": 52.127,
    "long": 0.956
  },
  {
    "id": 581,
    "city": "Wyton",
    "country": "Uk",
    "lat": 52.357,
    "long": -0.108
  },
  {
    "id": 582,
    "city": "Fairford",
    "country": "England",
    "lat": 51.682,
    "long": -1.79
  },
  {
    "id": 583,
    "city": "Brize Norton",
    "country": "England",
    "lat": 51.75,
    "long": -1.584
  },
  {
    "id": 584,
    "city": "Odiham",
    "country": "Uk",
    "lat": 51.234,
    "long": -0.943
  },
  {
    "id": 585,
    "city": "Cosford",
    "country": "England",
    "lat": 52.64,
    "long": -2.306
  },
  {
    "id": 586,
    "city": "Northolt",
    "country": "Uk",
    "lat": 51.553,
    "long": -0.418
  },
  {
    "id": 587,
    "city": "Coningsby",
    "country": "England",
    "lat": 53.093,
    "long": -0.166
  },
  {
    "id": 588,
    "city": "Dishforth",
    "country": "England",
    "lat": 54.137,
    "long": -1.42
  },
  {
    "id": 589,
    "city": "Leeming",
    "country": "England",
    "lat": 54.292,
    "long": -1.535
  },
  {
    "id": 590,
    "city": "Church Fenton",
    "country": "England",
    "lat": 53.834,
    "long": -1.195
  },
  {
    "id": 591,
    "city": "Honington",
    "country": "England",
    "lat": 52.343,
    "long": 0.773
  },
  {
    "id": 592,
    "city": "Cottesmore",
    "country": "England",
    "lat": 52.736,
    "long": -0.649
  },
  {
    "id": 593,
    "city": "Scampton",
    "country": "Uk",
    "lat": 53.307,
    "long": -0.551
  },
  {
    "id": 594,
    "city": "Wittering",
    "country": "Uk",
    "lat": 52.613,
    "long": -0.476
  },
  {
    "id": 595,
    "city": "Linton-on-ouse",
    "country": "England",
    "lat": 54.049,
    "long": -1.252
  },
  {
    "id": 596,
    "city": "Waddington",
    "country": "Uk",
    "lat": 53.166,
    "long": -0.524
  },
  {
    "id": 597,
    "city": "Topcliffe",
    "country": "Uk",
    "lat": 54.206,
    "long": -1.382
  },
  {
    "id": 598,
    "city": "Coltishall",
    "country": "England",
    "lat": 52.755,
    "long": 1.357
  },
  {
    "id": 599,
    "city": "Cranwell",
    "country": "England",
    "lat": 53.031,
    "long": -0.481
  },
  {
    "id": 600,
    "city": "Barkston Heath",
    "country": "England",
    "lat": 52.962,
    "long": -0.561
  },
  {
    "id": 601,
    "city": "Marham",
    "country": "Uk",
    "lat": 52.648,
    "long": 0.55
  },
  {
    "id": 602,
    "city": "Mount Pleasant",
    "country": "Falkland Islands",
    "lat": -51.823,
    "long": -58.447
  },
  {
    "id": 603,
    "city": "Amsterdam",
    "country": "Netherlands",
    "lat": 52.309,
    "long": 4.764
  },
  {
    "id": 604,
    "city": "Weert",
    "country": "Netherlands",
    "lat": 51.255,
    "long": 5.601
  },
  {
    "id": 605,
    "city": "Maastricht",
    "country": "Netherlands",
    "lat": 50.911,
    "long": 5.77
  },
  {
    "id": 606,
    "city": "Deelen",
    "country": "Netherlands",
    "lat": 52.061,
    "long": 5.873
  },
  {
    "id": 607,
    "city": "Drachten",
    "country": "Netherlands",
    "lat": 53.119,
    "long": 6.13
  },
  {
    "id": 608,
    "city": "Eindhoven",
    "country": "Netherlands",
    "lat": 51.45,
    "long": 5.374
  },
  {
    "id": 609,
    "city": "Groningen",
    "country": "Netherlands",
    "lat": 53.119,
    "long": 6.579
  },
  {
    "id": 610,
    "city": "Gilze-rijen",
    "country": "Netherlands",
    "lat": 51.568,
    "long": 4.933
  },
  {
    "id": 611,
    "city": "De Kooy",
    "country": "Netherlands",
    "lat": 52.923,
    "long": 4.781
  },
  {
    "id": 612,
    "city": "Lelystad",
    "country": "Netherlands",
    "lat": 52.46,
    "long": 5.527
  },
  {
    "id": 613,
    "city": "Leeuwarden",
    "country": "Netherlands",
    "lat": 53.229,
    "long": 5.761
  },
  {
    "id": 614,
    "city": "Rotterdam",
    "country": "Netherlands",
    "lat": 51.957,
    "long": 4.442
  },
  {
    "id": 615,
    "city": "Soesterberg",
    "country": "Netherlands",
    "lat": 52.127,
    "long": 5.276
  },
  {
    "id": 616,
    "city": "Enschede",
    "country": "Netherlands",
    "lat": 52.27,
    "long": 6.874
  },
  {
    "id": 617,
    "city": "Valkenburg",
    "country": "Netherlands",
    "lat": 52.17,
    "long": 4.426
  },
  {
    "id": 618,
    "city": "Woensdrecht",
    "country": "Netherlands",
    "lat": 51.449,
    "long": 4.342
  },
  {
    "id": 619,
    "city": "Cork",
    "country": "Ireland",
    "lat": 51.843,
    "long": -8.492
  },
  {
    "id": 620,
    "city": "Galway",
    "country": "Ireland",
    "lat": 53.301,
    "long": -8.939
  },
  {
    "id": 621,
    "city": "Donegal",
    "country": "Ireland",
    "lat": 55.044,
    "long": -8.341
  },
  {
    "id": 622,
    "city": "Dublin",
    "country": "Ireland",
    "lat": 53.421,
    "long": -6.27
  },
  {
    "id": 623,
    "city": "Connaught",
    "country": "Ireland",
    "lat": 53.91,
    "long": -8.818
  },
  {
    "id": 624,
    "city": "Kerry",
    "country": "Ireland",
    "lat": 52.181,
    "long": -9.524
  },
  {
    "id": 625,
    "city": "Casement",
    "country": "Ireland",
    "lat": 53.303,
    "long": -6.443
  },
  {
    "id": 626,
    "city": "Shannon",
    "country": "Ireland",
    "lat": 52.702,
    "long": -8.925
  },
  {
    "id": 627,
    "city": "Sligo",
    "country": "Ireland",
    "lat": 54.28,
    "long": -8.599
  },
  {
    "id": 628,
    "city": "Waterford",
    "country": "Ireland",
    "lat": 52.187,
    "long": -7.087
  },
  {
    "id": 629,
    "city": "Aarhus",
    "country": "Denmark",
    "lat": 56.304,
    "long": 10.619
  },
  {
    "id": 630,
    "city": "Billund",
    "country": "Denmark",
    "lat": 55.74,
    "long": 9.152
  },
  {
    "id": 631,
    "city": "Copenhagen",
    "country": "Denmark",
    "lat": 55.618,
    "long": 12.656
  },
  {
    "id": 632,
    "city": "Esbjerg",
    "country": "Denmark",
    "lat": 55.526,
    "long": 8.553
  },
  {
    "id": 633,
    "city": "Gronholt",
    "country": "Denmark",
    "lat": 55.941,
    "long": 12.382
  },
  {
    "id": 634,
    "city": "Lindtorp",
    "country": "Denmark",
    "lat": 56.397,
    "long": 8.443
  },
  {
    "id": 635,
    "city": "Karup",
    "country": "Denmark",
    "lat": 56.297,
    "long": 9.124
  },
  {
    "id": 636,
    "city": "Laeso",
    "country": "Denmark",
    "lat": 57.278,
    "long": 11.001
  },
  {
    "id": 637,
    "city": "Maribo",
    "country": "Denmark",
    "lat": 54.699,
    "long": 11.44
  },
  {
    "id": 638,
    "city": "Odense",
    "country": "Denmark",
    "lat": 55.476,
    "long": 10.329
  },
  {
    "id": 639,
    "city": "Krusa-padborg",
    "country": "Denmark",
    "lat": 54.87,
    "long": 9.279
  },
  {
    "id": 641,
    "city": "Ronne",
    "country": "Denmark",
    "lat": 55.063,
    "long": 14.759
  },
  {
    "id": 642,
    "city": "Soenderborg",
    "country": "Denmark",
    "lat": 54.964,
    "long": 9.792
  },
  {
    "id": 643,
    "city": "Sindal",
    "country": "Denmark",
    "lat": 57.503,
    "long": 10.229
  },
  {
    "id": 644,
    "city": "Skrydstrup",
    "country": "Denmark",
    "lat": 55.225,
    "long": 9.264
  },
  {
    "id": 645,
    "city": "Skive",
    "country": "Denmark",
    "lat": 56.55,
    "long": 9.173
  },
  {
    "id": 646,
    "city": "Thisted",
    "country": "Denmark",
    "lat": 57.069,
    "long": 8.705
  },
  {
    "id": 647,
    "city": "Vandel",
    "country": "Denmark",
    "lat": 55.697,
    "long": 9.193
  },
  {
    "id": 648,
    "city": "Kolding",
    "country": "Denmark",
    "lat": 55.436,
    "long": 9.331
  },
  {
    "id": 649,
    "city": "Vagar",
    "country": "Faroe Isl.",
    "lat": 62.064,
    "long": -7.277
  },
  {
    "id": 650,
    "city": "Vesthimmerland",
    "country": "Denmark",
    "lat": 56.847,
    "long": 9.459
  },
  {
    "id": 651,
    "city": "Stauning",
    "country": "Denmark",
    "lat": 55.99,
    "long": 8.354
  },
  {
    "id": 652,
    "city": "Vaerlose",
    "country": "Denmark",
    "lat": 55.767,
    "long": 12.343
  },
  {
    "id": 653,
    "city": "Aalborg",
    "country": "Denmark",
    "lat": 57.093,
    "long": 9.849
  },
  {
    "id": 654,
    "city": "Luxemburg",
    "country": "Luxemburg",
    "lat": 49.626,
    "long": 6.211
  },
  {
    "id": 655,
    "city": "Alesund",
    "country": "Norway",
    "lat": 62.56,
    "long": 6.11
  },
  {
    "id": 656,
    "city": "Andoya",
    "country": "Norway",
    "lat": 69.293,
    "long": 16.144
  },
  {
    "id": 657,
    "city": "Alta",
    "country": "Norway",
    "lat": 69.977,
    "long": 23.366
  },
  {
    "id": 658,
    "city": "Forde",
    "country": "Norway",
    "lat": 61.392,
    "long": 5.764
  },
  {
    "id": 659,
    "city": "Bomoen",
    "country": "Norway",
    "lat": 60.639,
    "long": 6.501
  },
  {
    "id": 660,
    "city": "Bronnoysund",
    "country": "Norway",
    "lat": 65.459,
    "long": 12.214
  },
  {
    "id": 661,
    "city": "Bodoe",
    "country": "Norway",
    "lat": 67.269,
    "long": 14.363
  },
  {
    "id": 662,
    "city": "Bergen",
    "country": "Norway",
    "lat": 60.293,
    "long": 5.218
  },
  {
    "id": 663,
    "city": "Batsfjord",
    "country": "Norway",
    "lat": 70.6,
    "long": 29.692
  },
  {
    "id": 664,
    "city": "Kristiansand",
    "country": "Norway",
    "lat": 58.204,
    "long": 8.085
  },
  {
    "id": 665,
    "city": "Dagli",
    "country": "Norway",
    "lat": 60.417,
    "long": 8.514
  },
  {
    "id": 666,
    "city": "Bardufoss",
    "country": "Norway",
    "lat": 69.056,
    "long": 18.54
  },
  {
    "id": 667,
    "city": "Evenes",
    "country": "Norway",
    "lat": 68.491,
    "long": 16.678
  },
  {
    "id": 668,
    "city": "Oslo",
    "country": "Norway",
    "lat": 59.896,
    "long": 10.617
  },
  {
    "id": 669,
    "city": "Fagernes",
    "country": "Norway",
    "lat": 61.011,
    "long": 9.293
  },
  {
    "id": 670,
    "city": "Floro",
    "country": "Norway",
    "lat": 61.584,
    "long": 5.025
  },
  {
    "id": 672,
    "city": "Hamar",
    "country": "Norway",
    "lat": 60.818,
    "long": 11.067
  },
  {
    "id": 673,
    "city": "Haugesund",
    "country": "Norway",
    "lat": 59.345,
    "long": 5.208
  },
  {
    "id": 674,
    "city": "Hasvik",
    "country": "Norway",
    "lat": 70.487,
    "long": 22.14
  },
  {
    "id": 675,
    "city": "Kristiansund",
    "country": "Norway",
    "lat": 63.112,
    "long": 7.824
  },
  {
    "id": 676,
    "city": "Kjeller",
    "country": "Norway",
    "lat": 59.969,
    "long": 11.036
  },
  {
    "id": 677,
    "city": "Kirkenes",
    "country": "Norway",
    "lat": 69.725,
    "long": 29.887
  },
  {
    "id": 678,
    "city": "Lista",
    "country": "Norway",
    "lat": 58.1,
    "long": 6.625
  },
  {
    "id": 679,
    "city": "Molde",
    "country": "Norway",
    "lat": 62.746,
    "long": 7.272
  },
  {
    "id": 680,
    "city": "Mosjoen",
    "country": "Norway",
    "lat": 65.784,
    "long": 13.215
  },
  {
    "id": 681,
    "city": "Banak",
    "country": "Norway",
    "lat": 70.069,
    "long": 24.973
  },
  {
    "id": 682,
    "city": "Notodden",
    "country": "Norway",
    "lat": 59.566,
    "long": 9.212
  },
  {
    "id": 683,
    "city": "Orland",
    "country": "Norway",
    "lat": 63.699,
    "long": 9.604
  },
  {
    "id": 684,
    "city": "Roros",
    "country": "Norway",
    "lat": 62.578,
    "long": 11.342
  },
  {
    "id": 685,
    "city": "Rygge",
    "country": "Norway",
    "lat": 59.379,
    "long": 10.786
  },
  {
    "id": 686,
    "city": "Svalbard",
    "country": "Norway",
    "lat": 78.246,
    "long": 15.466
  },
  {
    "id": 687,
    "city": "Sogndal",
    "country": "Norway",
    "lat": 61.156,
    "long": 7.136
  },
  {
    "id": 688,
    "city": "Skien",
    "country": "Norway",
    "lat": 59.185,
    "long": 9.567
  },
  {
    "id": 689,
    "city": "Stord",
    "country": "Norway",
    "lat": 59.792,
    "long": 5.341
  },
  {
    "id": 690,
    "city": "Sorkjosen",
    "country": "Norway",
    "lat": 69.787,
    "long": 20.959
  },
  {
    "id": 691,
    "city": "Svartnes",
    "country": "Norway",
    "lat": 70.355,
    "long": 31.045
  },
  {
    "id": 692,
    "city": "Sandnessjoen",
    "country": "Norway",
    "lat": 65.957,
    "long": 12.469
  },
  {
    "id": 693,
    "city": "Tromso",
    "country": "Norway",
    "lat": 69.683,
    "long": 18.919
  },
  {
    "id": 694,
    "city": "Torp",
    "country": "Norway",
    "lat": 59.187,
    "long": 10.259
  },
  {
    "id": 695,
    "city": "Trondheim",
    "country": "Norway",
    "lat": 63.458,
    "long": 10.94
  },
  {
    "id": 696,
    "city": "Stavanger",
    "country": "Norway",
    "lat": 58.877,
    "long": 5.638
  },
  {
    "id": 697,
    "city": "Gdansk",
    "country": "Poland",
    "lat": 54.377,
    "long": 18.466
  },
  {
    "id": 698,
    "city": "Krakow",
    "country": "Poland",
    "lat": 50.078,
    "long": 19.785
  },
  {
    "id": 699,
    "city": "Katowice",
    "country": "Poland",
    "lat": 50.238,
    "long": 19.035
  },
  {
    "id": 700,
    "city": "Koszalin",
    "country": "Poland",
    "lat": 54.042,
    "long": 16.264
  },
  {
    "id": 702,
    "city": "Lodz",
    "country": "Poland",
    "lat": 51.722,
    "long": 19.398
  },
  {
    "id": 703,
    "city": "Mielec",
    "country": "Poland",
    "lat": 50.322,
    "long": 21.462
  },
  {
    "id": 704,
    "city": "Poznan",
    "country": "Poland",
    "lat": 52.421,
    "long": 16.826
  },
  {
    "id": 705,
    "city": "Rzeszow",
    "country": "Poland",
    "lat": 50.11,
    "long": 22.019
  },
  {
    "id": 706,
    "city": "Szczechin",
    "country": "Poland",
    "lat": 53.585,
    "long": 14.902
  },
  {
    "id": 708,
    "city": "Slupsk",
    "country": "Poland",
    "lat": 54.479,
    "long": 17.108
  },
  {
    "id": 709,
    "city": "Shapaja",
    "country": "Peru",
    "lat": 53.791,
    "long": 15.828
  },
  {
    "id": 710,
    "city": "Warsaw",
    "country": "Poland",
    "lat": 52.166,
    "long": 20.967
  },
  {
    "id": 711,
    "city": "Wroclaw",
    "country": "Poland",
    "lat": 51.102,
    "long": 16.886
  },
  {
    "id": 712,
    "city": "Zielona Gora",
    "country": "Poland",
    "lat": 52.139,
    "long": 15.799
  },
  {
    "id": 713,
    "city": "Linkoeping",
    "country": "Sweden",
    "lat": 58.402,
    "long": 15.526
  },
  {
    "id": 714,
    "city": "Norrkoeping",
    "country": "Sweden",
    "lat": 58.611,
    "long": 16.103
  },
  {
    "id": 715,
    "city": "Uppsala",
    "country": "Sweden",
    "lat": 59.897,
    "long": 17.588
  },
  {
    "id": 716,
    "city": "Stockholm",
    "country": "Sweden",
    "lat": 59.181,
    "long": 17.912
  },
  {
    "id": 717,
    "city": "Angelholm",
    "country": "Sweden",
    "lat": 56.296,
    "long": 12.847
  },
  {
    "id": 718,
    "city": "Ronneby",
    "country": "Sweden",
    "lat": 56.267,
    "long": 15.265
  },
  {
    "id": 719,
    "city": "Hasslosa",
    "country": "Sweden",
    "lat": 58.409,
    "long": 13.262
  },
  {
    "id": 720,
    "city": "Knislinge",
    "country": "Sweden",
    "lat": 56.184,
    "long": 14.132
  },
  {
    "id": 721,
    "city": "Moholm",
    "country": "Sweden",
    "lat": 58.598,
    "long": 14.114
  },
  {
    "id": 722,
    "city": "Kosta",
    "country": "Sweden",
    "lat": 56.844,
    "long": 15.452
  },
  {
    "id": 723,
    "city": "Rada",
    "country": "Sweden",
    "lat": 58.498,
    "long": 13.053
  },
  {
    "id": 724,
    "city": "Byholma",
    "country": "Sweden",
    "lat": 56.785,
    "long": 13.602
  },
  {
    "id": 725,
    "city": "Gothenborg",
    "country": "Sweden",
    "lat": 57.663,
    "long": 12.28
  },
  {
    "id": 726,
    "city": "Joenkoeping",
    "country": "Sweden",
    "lat": 57.758,
    "long": 14.069
  },
  {
    "id": 727,
    "city": "Falkoping",
    "country": "Sweden",
    "lat": 58.17,
    "long": 13.588
  },
  {
    "id": 728,
    "city": "Lidkoping",
    "country": "Sweden",
    "lat": 58.465,
    "long": 13.174
  },
  {
    "id": 730,
    "city": "Skovde",
    "country": "Sweden",
    "lat": 58.456,
    "long": 13.973
  },
  {
    "id": 731,
    "city": "Trollhattan",
    "country": "Sweden",
    "lat": 58.318,
    "long": 12.345
  },
  {
    "id": 732,
    "city": "Karlsborg",
    "country": "Sweden",
    "lat": 58.514,
    "long": 14.507
  },
  {
    "id": 733,
    "city": "Satenas",
    "country": "Sweden",
    "lat": 58.426,
    "long": 12.714
  },
  {
    "id": 734,
    "city": "Gimo",
    "country": "Sweden",
    "lat": 60.133,
    "long": 18.105
  },
  {
    "id": 736,
    "city": "Karlskoga",
    "country": "Sweden",
    "lat": 59.346,
    "long": 14.496
  },
  {
    "id": 737,
    "city": "Mora",
    "country": "Sweden",
    "lat": 60.958,
    "long": 14.511
  },
  {
    "id": 739,
    "city": "Strangnas",
    "country": "Sweden",
    "lat": 59.314,
    "long": 17.109
  },
  {
    "id": 740,
    "city": "Arvika",
    "country": "Sweden",
    "lat": 59.676,
    "long": 12.639
  },
  {
    "id": 741,
    "city": "Bjorkvik",
    "country": "Sweden",
    "lat": 58.791,
    "long": 16.571
  },
  {
    "id": 742,
    "city": "Emmaboda",
    "country": "Sweden",
    "lat": 56.611,
    "long": 15.605
  },
  {
    "id": 743,
    "city": "Ljungby",
    "country": "Sweden",
    "lat": 56.95,
    "long": 13.922
  },
  {
    "id": 744,
    "city": "Kristianstad",
    "country": "Sweden",
    "lat": 55.922,
    "long": 14.085
  },
  {
    "id": 745,
    "city": "Landskrona",
    "country": "Sweden",
    "lat": 55.945,
    "long": 12.861
  },
  {
    "id": 746,
    "city": "Oskarshamn",
    "country": "Sweden",
    "lat": 57.35,
    "long": 16.498
  },
  {
    "id": 747,
    "city": "Anderstorp",
    "country": "Sweden",
    "lat": 57.264,
    "long": 13.599
  },
  {
    "id": 748,
    "city": "Kalkmar",
    "country": "Sweden",
    "lat": 56.685,
    "long": 16.288
  },
  {
    "id": 749,
    "city": "Malmoe",
    "country": "Sweden",
    "lat": 55.53,
    "long": 13.371
  },
  {
    "id": 750,
    "city": "Halmstad",
    "country": "Sweden",
    "lat": 56.691,
    "long": 12.82
  },
  {
    "id": 751,
    "city": "Hagshult",
    "country": "Sweden",
    "lat": 57.292,
    "long": 14.137
  },
  {
    "id": 752,
    "city": "Vaxjo",
    "country": "Sweden",
    "lat": 56.929,
    "long": 14.728
  },
  {
    "id": 753,
    "city": "Hallviken",
    "country": "Sweden",
    "lat": 63.738,
    "long": 15.458
  },
  {
    "id": 754,
    "city": "Hede",
    "country": "Sweden",
    "lat": 62.409,
    "long": 13.747
  },
  {
    "id": 755,
    "city": "Sveg",
    "country": "Sweden",
    "lat": 62.048,
    "long": 14.423
  },
  {
    "id": 756,
    "city": "Farila",
    "country": "Sweden",
    "lat": 61.898,
    "long": 15.705
  },
  {
    "id": 757,
    "city": "Gallivare",
    "country": "Sweden",
    "lat": 67.132,
    "long": 20.814
  },
  {
    "id": 758,
    "city": "Hudiksvall",
    "country": "Sweden",
    "lat": 61.768,
    "long": 17.081
  },
  {
    "id": 759,
    "city": "Kubbe",
    "country": "Sweden",
    "lat": 63.634,
    "long": 17.94
  },
  {
    "id": 760,
    "city": "Jokkmokk",
    "country": "Sweden",
    "lat": 66.496,
    "long": 20.147
  },
  {
    "id": 761,
    "city": "Kramfors",
    "country": "Sweden",
    "lat": 63.048,
    "long": 17.769
  },
  {
    "id": 762,
    "city": "Lycksele",
    "country": "Sweden",
    "lat": 64.548,
    "long": 18.716
  },
  {
    "id": 763,
    "city": "Optand",
    "country": "Sweden",
    "lat": 63.129,
    "long": 14.803
  },
  {
    "id": 764,
    "city": "Sundsvall",
    "country": "Sweden",
    "lat": 62.528,
    "long": 17.444
  },
  {
    "id": 765,
    "city": "Ornskoldsvik",
    "country": "Sweden",
    "lat": 63.408,
    "long": 18.99
  },
  {
    "id": 766,
    "city": "Pitea",
    "country": "Sweden",
    "lat": 65.399,
    "long": 21.265
  },
  {
    "id": 767,
    "city": "Kiruna",
    "country": "Sweden",
    "lat": 67.822,
    "long": 20.337
  },
  {
    "id": 768,
    "city": "Orsa",
    "country": "Sweden",
    "lat": 61.19,
    "long": 14.712
  },
  {
    "id": 769,
    "city": "Skelleftea",
    "country": "Sweden",
    "lat": 64.625,
    "long": 21.077
  },
  {
    "id": 770,
    "city": "Sattna",
    "country": "Sweden",
    "lat": 62.481,
    "long": 17.003
  },
  {
    "id": 771,
    "city": "Umea",
    "country": "Sweden",
    "lat": 63.792,
    "long": 20.282
  },
  {
    "id": 772,
    "city": "Vilhelmina",
    "country": "Sweden",
    "lat": 64.579,
    "long": 16.833
  },
  {
    "id": 773,
    "city": "Arvidsjaur",
    "country": "Sweden",
    "lat": 65.59,
    "long": 19.282
  },
  {
    "id": 774,
    "city": "Orebro",
    "country": "Sweden",
    "lat": 59.224,
    "long": 15.038
  },
  {
    "id": 775,
    "city": "Hagfors",
    "country": "Sweden",
    "lat": 60.02,
    "long": 13.579
  },
  {
    "id": 776,
    "city": "Vasteras",
    "country": "Sweden",
    "lat": 59.589,
    "long": 16.634
  },
  {
    "id": 777,
    "city": "Lulea",
    "country": "Sweden",
    "lat": 65.544,
    "long": 22.122
  },
  {
    "id": 778,
    "city": "Ostersund",
    "country": "Sweden",
    "lat": 63.194,
    "long": 14.502
  },
  {
    "id": 779,
    "city": "Vidsel",
    "country": "Sweden",
    "lat": 65.875,
    "long": 20.15
  },
  {
    "id": 780,
    "city": "Heden",
    "country": "Sweden",
    "lat": 65.836,
    "long": 21.471
  },
  {
    "id": 781,
    "city": "Arboga",
    "country": "Sweden",
    "lat": 59.386,
    "long": 15.924
  },
  {
    "id": 784,
    "city": "Borlange",
    "country": "Sweden",
    "lat": 60.422,
    "long": 15.515
  },
  {
    "id": 785,
    "city": "Hultsfred",
    "country": "Sweden",
    "lat": 57.526,
    "long": 15.824
  },
  {
    "id": 786,
    "city": "Gavle",
    "country": "Sweden",
    "lat": 60.593,
    "long": 16.951
  },
  {
    "id": 789,
    "city": "Torsby",
    "country": "Sweden",
    "lat": 60.157,
    "long": 12.991
  },
  {
    "id": 790,
    "city": "Eskilstuna",
    "country": "Sweden",
    "lat": 59.351,
    "long": 16.708
  },
  {
    "id": 791,
    "city": "Visby",
    "country": "Sweden",
    "lat": 57.663,
    "long": 18.346
  },
  {
    "id": 792,
    "city": "Amsele",
    "country": "Sweden",
    "lat": 64.571,
    "long": 19.314
  },
  {
    "id": 793,
    "city": "Mohed",
    "country": "Sweden",
    "lat": 64.961,
    "long": 17.696
  },
  {
    "id": 794,
    "city": "Idre",
    "country": "Sweden",
    "lat": 61.869,
    "long": 12.691
  },
  {
    "id": 795,
    "city": "Fallfors",
    "country": "Sweden",
    "lat": 65.106,
    "long": 20.761
  },
  {
    "id": 796,
    "city": "Kalixfors",
    "country": "Sweden",
    "lat": 67.765,
    "long": 20.257
  },
  {
    "id": 797,
    "city": "Hemavan",
    "country": "Sweden",
    "lat": 65.806,
    "long": 15.083
  },
  {
    "id": 798,
    "city": "Spangdahlem",
    "country": "Germany",
    "lat": 49.973,
    "long": 6.692
  },
  {
    "id": 799,
    "city": "Ramstein",
    "country": "Germany",
    "lat": 49.438,
    "long": 7.601
  },
  {
    "id": 800,
    "city": "Bamberg",
    "country": "Germany",
    "lat": 49.92,
    "long": 10.914
  },
  {
    "id": 801,
    "city": "Baumholder",
    "country": "Germany",
    "lat": 49.65,
    "long": 7.3
  },
  {
    "id": 802,
    "city": "Giebelstadt",
    "country": "Germany",
    "lat": 49.648,
    "long": 9.966
  },
  {
    "id": 803,
    "city": "Brueckeburg",
    "country": "Germany",
    "lat": 52.278,
    "long": 9.082
  },
  {
    "id": 804,
    "city": "Celle",
    "country": "Germany",
    "lat": 52.591,
    "long": 10.022
  },
  {
    "id": 805,
    "city": "Rheine-brentlange",
    "country": "Germany",
    "lat": 52.291,
    "long": 7.387
  },
  {
    "id": 806,
    "city": "Fritzlar",
    "country": "Germany",
    "lat": 51.114,
    "long": 9.286
  },
  {
    "id": 807,
    "city": "Itzehoe",
    "country": "Germany",
    "lat": 53.994,
    "long": 9.578
  },
  {
    "id": 808,
    "city": "Laupheim",
    "country": "Germany",
    "lat": 48.22,
    "long": 9.91
  },
  {
    "id": 809,
    "city": "Mendig",
    "country": "Germany",
    "lat": 50.366,
    "long": 7.315
  },
  {
    "id": 810,
    "city": "Niederstetten",
    "country": "Germany",
    "lat": 49.392,
    "long": 9.958
  },
  {
    "id": 811,
    "city": "Roth",
    "country": "Germany",
    "lat": 49.218,
    "long": 11.101
  },
  {
    "id": 812,
    "city": "Fassberg",
    "country": "Germany",
    "lat": 52.919,
    "long": 10.184
  },
  {
    "id": 814,
    "city": "Grafenwoehr",
    "country": "Germany",
    "lat": 49.699,
    "long": 11.941
  },
  {
    "id": 815,
    "city": "Hanau",
    "country": "Germany",
    "lat": 50.169,
    "long": 8.961
  },
  {
    "id": 816,
    "city": "Heidelberg",
    "country": "Germany",
    "lat": 49.393,
    "long": 8.652
  },
  {
    "id": 817,
    "city": "Hohenfels",
    "country": "Germany",
    "lat": 49.218,
    "long": 11.836
  },
  {
    "id": 818,
    "city": "Kitzingen",
    "country": "Germany",
    "lat": 49.743,
    "long": 10.201
  },
  {
    "id": 819,
    "city": "Eggebeck",
    "country": "Germany",
    "lat": 54.625,
    "long": 9.341
  },
  {
    "id": 820,
    "city": "Nordholz",
    "country": "Germany",
    "lat": 53.767,
    "long": 8.658
  },
  {
    "id": 821,
    "city": "Diepholz",
    "country": "Germany",
    "lat": 52.585,
    "long": 8.341
  },
  {
    "id": 822,
    "city": "Geilenkirchen",
    "country": "Germany",
    "lat": 50.961,
    "long": 6.042
  },
  {
    "id": 823,
    "city": "Hohn",
    "country": "Germany",
    "lat": 54.312,
    "long": 9.538
  },
  {
    "id": 824,
    "city": "Jever",
    "country": "Germany",
    "lat": 53.533,
    "long": 7.889
  },
  {
    "id": 825,
    "city": "Laage",
    "country": "Germany",
    "lat": 53.918,
    "long": 12.279
  },
  {
    "id": 826,
    "city": "Noervenich",
    "country": "Germany",
    "lat": 50.831,
    "long": 6.658
  },
  {
    "id": 827,
    "city": "Hopsten",
    "country": "Germany",
    "lat": 52.339,
    "long": 7.541
  },
  {
    "id": 828,
    "city": "Preschen",
    "country": "Germany",
    "lat": 51.664,
    "long": 14.634
  },
  {
    "id": 829,
    "city": "Schleswig",
    "country": "Germany",
    "lat": 54.459,
    "long": 9.516
  },
  {
    "id": 830,
    "city": "Wittmundhafen",
    "country": "Germany",
    "lat": 53.548,
    "long": 7.667
  },
  {
    "id": 831,
    "city": "Neubrandenburg",
    "country": "Germany",
    "lat": 53.602,
    "long": 13.306
  },
  {
    "id": 832,
    "city": "Wunstorf",
    "country": "Germany",
    "lat": 52.457,
    "long": 9.427
  },
  {
    "id": 833,
    "city": "Vilseck",
    "country": "Germany",
    "lat": 49.634,
    "long": 11.767
  },
  {
    "id": 834,
    "city": "Coleman",
    "country": "Germany",
    "lat": 49.563,
    "long": 8.463
  },
  {
    "id": 835,
    "city": "Wiesbaden",
    "country": "Germany",
    "lat": 50.05,
    "long": 8.325
  },
  {
    "id": 836,
    "city": "Landsberg",
    "country": "Germany",
    "lat": 48.071,
    "long": 10.906
  },
  {
    "id": 837,
    "city": "Buechel",
    "country": "Germany",
    "lat": 50.174,
    "long": 7.063
  },
  {
    "id": 838,
    "city": "Erding",
    "country": "Germany",
    "lat": 48.322,
    "long": 11.949
  },
  {
    "id": 839,
    "city": "Fuerstenfeldbruck",
    "country": "Germany",
    "lat": 48.206,
    "long": 11.267
  },
  {
    "id": 840,
    "city": "Holzdorf",
    "country": "Germany",
    "lat": 51.768,
    "long": 13.167
  },
  {
    "id": 841,
    "city": "Ingolstadt",
    "country": "Germany",
    "lat": 48.716,
    "long": 11.534
  },
  {
    "id": 842,
    "city": "Lechfeld",
    "country": "Germany",
    "lat": 48.186,
    "long": 10.862
  },
  {
    "id": 843,
    "city": "Memmingen",
    "country": "Germany",
    "lat": 47.989,
    "long": 10.239
  },
  {
    "id": 844,
    "city": "Neuburg",
    "country": "Germany",
    "lat": 48.711,
    "long": 11.211
  },
  {
    "id": 845,
    "city": "Laarbruch",
    "country": "Germany",
    "lat": 51.602,
    "long": 6.143
  },
  {
    "id": 846,
    "city": "Guetersloh",
    "country": "Germany",
    "lat": 51.923,
    "long": 8.306
  },
  {
    "id": 847,
    "city": "Brueggen",
    "country": "Germany",
    "lat": 51.2,
    "long": 6.132
  },
  {
    "id": 848,
    "city": "Alexander Bay",
    "country": "South Africa",
    "lat": -28.575,
    "long": 16.533
  },
  {
    "id": 849,
    "city": "Aggeneys",
    "country": "South Africa",
    "lat": -29.282,
    "long": 18.814
  },
  {
    "id": 850,
    "city": "Arnot Power Station",
    "country": "South Africa",
    "lat": -25.944,
    "long": 29.81
  },
  {
    "id": 851,
    "city": "Brakpan",
    "country": "South Africa",
    "lat": -26.239,
    "long": 28.302
  },
  {
    "id": 852,
    "city": "Bisho",
    "country": "South Africa",
    "lat": -32.897,
    "long": 27.279
  },
  {
    "id": 853,
    "city": "Bloemfontein",
    "country": "South Africa",
    "lat": -29.092,
    "long": 26.302
  },
  {
    "id": 854,
    "city": "Bethlehem",
    "country": "South Africa",
    "lat": -28.248,
    "long": 28.336
  },
  {
    "id": 855,
    "city": "Bothaville",
    "country": "South Africa",
    "lat": -27.367,
    "long": 26.629
  },
  {
    "id": 856,
    "city": "Carletonville",
    "country": "South Africa",
    "lat": -26.369,
    "long": 27.35
  },
  {
    "id": 857,
    "city": "Cape Town",
    "country": "South Africa",
    "lat": -33.965,
    "long": 18.602
  },
  {
    "id": 858,
    "city": "Calvinia",
    "country": "South Africa",
    "lat": -31.5,
    "long": 19.726
  },
  {
    "id": 859,
    "city": "De Aar",
    "country": "South Africa",
    "lat": -30.637,
    "long": 23.92
  },
  {
    "id": 860,
    "city": "Dwaalboom",
    "country": "South Africa",
    "lat": -24.805,
    "long": 26.832
  },
  {
    "id": 861,
    "city": "Dundee",
    "country": "South Africa",
    "lat": -28.183,
    "long": 30.224
  },
  {
    "id": 862,
    "city": "Durban",
    "country": "South Africa",
    "lat": -29.97,
    "long": 30.95
  },
  {
    "id": 863,
    "city": "East London",
    "country": "South Africa",
    "lat": -33.036,
    "long": 27.826
  },
  {
    "id": 864,
    "city": "Ermelo",
    "country": "South Africa",
    "lat": -26.495,
    "long": 29.98
  },
  {
    "id": 865,
    "city": "Ellisras",
    "country": "South Africa",
    "lat": -23.726,
    "long": 27.688
  },
  {
    "id": 866,
    "city": "Ficksburg",
    "country": "South Africa",
    "lat": -28.823,
    "long": 27.909
  },
  {
    "id": 867,
    "city": "Johannesburg",
    "country": "South Africa",
    "lat": -25.986,
    "long": 28.14
  },
  {
    "id": 868,
    "city": "George",
    "country": "South Africa",
    "lat": -34.005,
    "long": 22.379
  },
  {
    "id": 869,
    "city": "Giyani",
    "country": "South Africa",
    "lat": -23.284,
    "long": 30.65
  },
  {
    "id": 871,
    "city": "Grahamstown",
    "country": "South Africa",
    "lat": -33.285,
    "long": 26.498
  },
  {
    "id": 872,
    "city": "Greytown",
    "country": "South Africa",
    "lat": -29.122,
    "long": 30.587
  },
  {
    "id": 873,
    "city": "Harmony",
    "country": "South Africa",
    "lat": -28.079,
    "long": 26.861
  },
  {
    "id": 874,
    "city": "Pullenshope",
    "country": "South Africa",
    "lat": -25.979,
    "long": 29.619
  },
  {
    "id": 875,
    "city": "Heidelberg",
    "country": "South Africa",
    "lat": -26.506,
    "long": 28.394
  },
  {
    "id": 876,
    "city": "Heibron",
    "country": "South Africa",
    "lat": -27.278,
    "long": 27.996
  },
  {
    "id": 877,
    "city": "Harrismith",
    "country": "South Africa",
    "lat": -28.235,
    "long": 29.106
  },
  {
    "id": 878,
    "city": "Hoedspruit",
    "country": "South Africa",
    "lat": -24.369,
    "long": 31.049
  },
  {
    "id": 879,
    "city": "Hendrik Verwoerddam",
    "country": "South Africa",
    "lat": -30.562,
    "long": 25.528
  },
  {
    "id": 881,
    "city": "Klerksdorp",
    "country": "South Africa",
    "lat": -26.871,
    "long": 26.718
  },
  {
    "id": 882,
    "city": "Komati Power Station",
    "country": "South Africa",
    "lat": -26.093,
    "long": 29.455
  },
  {
    "id": 883,
    "city": "Kriel",
    "country": "South Africa",
    "lat": -26.252,
    "long": 29.194
  },
  {
    "id": 884,
    "city": "Kimberley",
    "country": "South Africa",
    "lat": -28.803,
    "long": 24.765
  },
  {
    "id": 885,
    "city": "Komatipoort",
    "country": "South Africa",
    "lat": -25.441,
    "long": 31.93
  },
  {
    "id": 886,
    "city": "Krugersdorp",
    "country": "South Africa",
    "lat": -26.081,
    "long": 27.726
  },
  {
    "id": 887,
    "city": "Kroonstad",
    "country": "South Africa",
    "lat": -27.661,
    "long": 27.316
  },
  {
    "id": 888,
    "city": "Kuruman",
    "country": "South Africa",
    "lat": -27.457,
    "long": 23.411
  },
  {
    "id": 889,
    "city": "Kleinsee",
    "country": "South Africa",
    "lat": -29.688,
    "long": 17.094
  },
  {
    "id": 891,
    "city": "Ladybrand",
    "country": "South Africa",
    "lat": -29.181,
    "long": 27.453
  },
  {
    "id": 892,
    "city": "Lichtenburg",
    "country": "South Africa",
    "lat": -26.176,
    "long": 26.184
  },
  {
    "id": 893,
    "city": "Louis Trichardt",
    "country": "South Africa",
    "lat": -23.16,
    "long": 29.696
  },
  {
    "id": 894,
    "city": "Langebaanweg",
    "country": "South Africa",
    "lat": -32.969,
    "long": 18.16
  },
  {
    "id": 895,
    "city": "Ladysmith",
    "country": "South Africa",
    "lat": -28.582,
    "long": 29.75
  },
  {
    "id": 896,
    "city": "Middelburg",
    "country": "South Africa",
    "lat": -25.685,
    "long": 29.44
  },
  {
    "id": 897,
    "city": "Margate",
    "country": "South Africa",
    "lat": -30.857,
    "long": 30.343
  },
  {
    "id": 898,
    "city": "Marble Hall",
    "country": "South Africa",
    "lat": -24.989,
    "long": 29.283
  },
  {
    "id": 899,
    "city": "Majuba Power Station",
    "country": "South Africa",
    "lat": -27.079,
    "long": 29.778
  },
  {
    "id": 900,
    "city": "Mafikeng",
    "country": "South Africa",
    "lat": -25.753,
    "long": 25.612
  },
  {
    "id": 901,
    "city": "Mmabatho",
    "country": "South Africa",
    "lat": -25.798,
    "long": 25.548
  },
  {
    "id": 902,
    "city": "Malalane",
    "country": "South Africa",
    "lat": -25.473,
    "long": 31.566
  },
  {
    "id": 903,
    "city": "Messina",
    "country": "South Africa",
    "lat": -22.356,
    "long": 29.986
  },
  {
    "id": 904,
    "city": "Mkuze",
    "country": "South Africa",
    "lat": -27.626,
    "long": 32.044
  },
  {
    "id": 905,
    "city": "Newcastle",
    "country": "South Africa",
    "lat": -27.771,
    "long": 29.977
  },
  {
    "id": 906,
    "city": "Nelspruit",
    "country": "South Africa",
    "lat": -25.501,
    "long": 30.913
  },
  {
    "id": 907,
    "city": "Nylstroom",
    "country": "South Africa",
    "lat": -24.686,
    "long": 28.435
  },
  {
    "id": 908,
    "city": "Overberg",
    "country": "South Africa",
    "lat": -34.555,
    "long": 20.25
  },
  {
    "id": 909,
    "city": "Oudtshoorn",
    "country": "South Africa",
    "lat": -33.607,
    "long": 22.189
  },
  {
    "id": 910,
    "city": "Pietersburg",
    "country": "South Africa",
    "lat": -23.845,
    "long": 29.459
  },
  {
    "id": 911,
    "city": "Port Elizabeth",
    "country": "South Africa",
    "lat": -33.985,
    "long": 25.617
  },
  {
    "id": 912,
    "city": "Plettenberg Bay",
    "country": "South Africa",
    "lat": -34.09,
    "long": 23.328
  },
  {
    "id": 913,
    "city": "Phalaborwa",
    "country": "South Africa",
    "lat": -23.937,
    "long": 31.155
  },
  {
    "id": 915,
    "city": "Port Saint Johns",
    "country": "South Africa",
    "lat": -31.606,
    "long": 29.52
  },
  {
    "id": 916,
    "city": "Pietermaritzburg",
    "country": "South Africa",
    "lat": -29.649,
    "long": 30.399
  },
  {
    "id": 917,
    "city": "Pilanesberg",
    "country": "South Africa",
    "lat": -25.334,
    "long": 27.173
  },
  {
    "id": 918,
    "city": "Potgietersrus",
    "country": "South Africa",
    "lat": -24.23,
    "long": 28.984
  },
  {
    "id": 919,
    "city": "Pomfret",
    "country": "South Africa",
    "lat": -25.847,
    "long": 23.538
  },
  {
    "id": 920,
    "city": "Potchefstroom",
    "country": "South Africa",
    "lat": -26.671,
    "long": 27.082
  },
  {
    "id": 921,
    "city": "Parys",
    "country": "South Africa",
    "lat": -26.889,
    "long": 27.503
  },
  {
    "id": 922,
    "city": "Queenstown",
    "country": "South Africa",
    "lat": -31.92,
    "long": 26.882
  },
  {
    "id": 923,
    "city": "Richard's Bay",
    "country": "South Africa",
    "lat": -28.741,
    "long": 32.092
  },
  {
    "id": 924,
    "city": "Rustenburg",
    "country": "South Africa",
    "lat": -25.644,
    "long": 27.271
  },
  {
    "id": 925,
    "city": "Robertson",
    "country": "South Africa",
    "lat": -33.812,
    "long": 19.903
  },